<?xml version="1.0" standalone="yes"?>
<DocumentElement>
  <RESULTS>
    <ICAO>04V</ICAO>
    <Airport_Name>SAGUACHE MUNI</Airport_Name>
    <Latitude>38.0991666667</Latitude>
    <Longitude>-106.1736111111</Longitude>
    <Frequency>118.625</Frequency>
    <Telephone>719-655-2229</Telephone>
  </RESULTS>
  <RESULTS>
    <ICAO>04W</ICAO>
    <Airport_Name>FIELD OF DREAMS</Airport_Name>
    <Latitude>46.0243222222</Latitude>
    <Longitude>-92.9001944444</Longitude>
    <Frequency>118.225</Frequency>
    <Telephone>320-384-6169</Telephone>
  </RESULTS>
  <RESULTS>
    <ICAO>06D</ICAO>
    <Airport_Name>ROLLA MUNI</Airport_Name>
    <Latitude>48.8844166667</Latitude>
    <Longitude>-99.62075</Longitude>
    <Frequency>118.125</Frequency>
    <Telephone>701-447-0055</Telephone>
  </RESULTS>
  <RESULTS>
    <ICAO>08D</ICAO>
    <Airport_Name>STANLEY MUNI</Airport_Name>
    <Latitude>48.3007986111</Latitude>
    <Longitude>-102.4063513889</Longitude>
    <Frequency>121.1</Frequency>
    <Telephone>701-628-1737</Telephone>
  </RESULTS>
  <RESULTS>
    <ICAO>09CA</ICAO>
    <Airport_Name>MEE MEMORIAL HOSPITAL</Airport_Name>
    <Latitude>36.2056</Latitude>
    <Longitude>-121.1330722222</Longitude>
    <Frequency>120.800</Frequency>
    <Telephone>831-386-7456</Telephone>
  </RESULTS>
  <RESULTS>
    <ICAO>0A9</ICAO>
    <Airport_Name>ELIZABETHTON MUNI</Airport_Name>
    <Latitude>35.3972222222</Latitude>
    <Longitude>-84.5625</Longitude>
    <Frequency>135.675</Frequency>
    <Telephone>423-543-1801</Telephone>
  </RESULTS>
  <RESULTS>
    <ICAO>0E0</ICAO>
    <Airport_Name>MORIARTY</Airport_Name>
    <Latitude>34.9837222222</Latitude>
    <Longitude>-105.9955</Longitude>
    <Frequency>118.05</Frequency>
    <Telephone>505-832-9379</Telephone>
  </RESULTS>
  <RESULTS>
    <ICAO>0F2</ICAO>
    <Airport_Name>BOWIE MUNI</Airport_Name>
    <Latitude>33.6011388889</Latitude>
    <Longitude>-97.7735277778</Longitude>
    <Frequency>118.75</Frequency>
    <Telephone>940-872-2366</Telephone>
  </RESULTS>
  <RESULTS>
    <ICAO>0G7</ICAO>
    <Airport_Name>FINGER LAKES RGNL</Airport_Name>
    <Latitude>42.8835646944</Latitude>
    <Longitude>-76.7812317778</Longitude>
    <Frequency>120.0</Frequency>
    <Telephone>315-568-5362</Telephone>
  </RESULTS>
  <RESULTS>
    <ICAO>0V7</ICAO>
    <Airport_Name>KAYENTA</Airport_Name>
    <Latitude>36.7145055556</Latitude>
    <Longitude>-110.2296722222</Longitude>
    <Frequency>119.325</Frequency>
    <Telephone>928-697-3638</Telephone>
  </RESULTS>
  <RESULTS>
    <ICAO>10G</ICAO>
    <Airport_Name>HOLMES COUNTY</Airport_Name>
    <Latitude>40.5371666667</Latitude>
    <Longitude>-81.9543611111</Longitude>
    <Frequency>128.325</Frequency>
    <Telephone>330-674-6279</Telephone>
  </RESULTS>
  <RESULTS>
    <ICAO>11A</ICAO>
    <Airport_Name>CLAYTON MUNI</Airport_Name>
    <Latitude>31.8814666667</Latitude>
    <Longitude>-85.4804527778</Longitude>
    <Frequency>118.775</Frequency>
    <Telephone>334-775-8414</Telephone>
  </RESULTS>
  <RESULTS>
    <ICAO>11R</ICAO>
    <Airport_Name>BRENHAM MUNI</Airport_Name>
    <Latitude>30.2196755</Latitude>
    <Longitude>-96.3744027778</Longitude>
    <Frequency>121.125</Frequency>
    <Telephone>979-836-2303</Telephone>
  </RESULTS>
  <RESULTS>
    <ICAO>12J</ICAO>
    <Airport_Name>BREWTON MUNI</Airport_Name>
    <Latitude>31.0526166667</Latitude>
    <Longitude>-87.0660027778</Longitude>
    <Frequency>119.325</Frequency>
    <Telephone>251-809-2987</Telephone>
  </RESULTS>
  <RESULTS>
    <ICAO>13K</ICAO>
    <Airport_Name>EUREKA MUNI</Airport_Name>
    <Latitude>37.8516111111</Latitude>
    <Longitude>-96.2920277778</Longitude>
    <Frequency>120.975</Frequency>
    <Telephone>620-583-5442</Telephone>
  </RESULTS>
  <RESULTS>
    <ICAO>14Y</ICAO>
    <Airport_Name>TODD FIELD</Airport_Name>
    <Latitude>45.89825</Latitude>
    <Longitude>-94.8738611111</Longitude>
    <Frequency>118.650</Frequency>
    <Telephone>320-732-3508</Telephone>
  </RESULTS>
  <RESULTS>
    <ICAO>16G</ICAO>
    <Airport_Name>SENECA COUNTY</Airport_Name>
    <Latitude>41.0941388889</Latitude>
    <Longitude>-83.2156111111</Longitude>
    <Frequency>127.175</Frequency>
    <Telephone>419-443-1043</Telephone>
  </RESULTS>
  <RESULTS>
    <ICAO>17G</ICAO>
    <Airport_Name>PORT BUCYRUS-CRAWFORD COUNTY</Airport_Name>
    <Latitude>40.7843255556</Latitude>
    <Longitude>-82.9741913889</Longitude>
    <Frequency>126.625</Frequency>
    <Telephone>419-562-0297</Telephone>
  </RESULTS>
  <RESULTS>
    <ICAO>18A</ICAO>
    <Airport_Name>FRANKLIN COUNTY</Airport_Name>
    <Latitude>34.3418222222</Latitude>
    <Longitude>-83.131625</Longitude>
    <Frequency>118.625</Frequency>
    <Telephone>706-245-1097</Telephone>
  </RESULTS>
  <RESULTS>
    <ICAO>18AZ</ICAO>
    <Airport_Name>SKY RANCH AT CAREFREE</Airport_Name>
    <Latitude>33.8180947222</Latitude>
    <Longitude>-111.8979241667</Longitude>
    <Frequency>125.625</Frequency>
    <Telephone>480-488-7882</Telephone>
  </RESULTS>
  <RESULTS>
    <ICAO>19A</ICAO>
    <Airport_Name>JACKSON COUNTY</Airport_Name>
    <Latitude>34.1738944444</Latitude>
    <Longitude>-83.5583027778</Longitude>
    <Frequency>118.125</Frequency>
    <Telephone>706-367-1607</Telephone>
  </RESULTS>
  <RESULTS>
    <ICAO>1A5</ICAO>
    <Airport_Name>MACON COUNTY</Airport_Name>
    <Latitude>35.2226152778</Latitude>
    <Longitude>-83.4190625</Longitude>
    <Frequency>118.225</Frequency>
    <Telephone>828-349-3156</Telephone>
  </RESULTS>
  <RESULTS>
    <ICAO>1A6</ICAO>
    <Airport_Name>MIDDLESBORO-BELL COUNTY</Airport_Name>
    <Latitude>36.6105555556</Latitude>
    <Longitude>-83.7375</Longitude>
    <Frequency>119.425</Frequency>
    <Telephone>606-248-3095</Telephone>
  </RESULTS>
  <RESULTS>
    <ICAO>1B1</ICAO>
    <Airport_Name>COLUMBIA COUNTY</Airport_Name>
    <Latitude>42.2913888889</Latitude>
    <Longitude>-73.7102777778</Longitude>
    <Frequency>133.525</Frequency>
    <Telephone>518-828-2577</Telephone>
  </RESULTS>
  <RESULTS>
    <ICAO>1F0</ICAO>
    <Airport_Name>ARDMORE DOWNTOWN EXECUTIVE</Airport_Name>
    <Latitude>34.1469444444</Latitude>
    <Longitude>-97.1227777778</Longitude>
    <Frequency>118.15</Frequency>
    <Telephone>580-226-1536</Telephone>
  </RESULTS>
  <RESULTS>
    <ICAO>1G0</ICAO>
    <Airport_Name>WOOD COUNTY</Airport_Name>
    <Latitude>41.391</Latitude>
    <Longitude>-83.6301388889</Longitude>
    <Frequency>120.725</Frequency>
    <Telephone>419-354-1415</Telephone>
  </RESULTS>
  <RESULTS>
    <ICAO>1G4</ICAO>
    <Airport_Name>GRAND CANYON WEST</Airport_Name>
    <Latitude>35.9888111111</Latitude>
    <Longitude>-113.8151972222</Longitude>
    <Frequency>119.425</Frequency>
    <Telephone />
  </RESULTS>
  <RESULTS>
    <ICAO>1H2</ICAO>
    <Airport_Name>EFFINGHAM COUNTY MEMORIAL</Airport_Name>
    <Latitude>39.0705555556</Latitude>
    <Longitude>-88.5336111111</Longitude>
    <Frequency>118.375</Frequency>
    <Telephone>217-536-5976</Telephone>
  </RESULTS>
  <RESULTS>
    <ICAO>1M4</ICAO>
    <Airport_Name>POSEY FIELD</Airport_Name>
    <Latitude>34.2661111111</Latitude>
    <Longitude>-87.5988888889</Longitude>
    <Frequency>119.525</Frequency>
    <Telephone>205-486-0035</Telephone>
  </RESULTS>
  <RESULTS>
    <ICAO>1M5</ICAO>
    <Airport_Name>PORTLAND MUNI</Airport_Name>
    <Latitude>36.5927777778</Latitude>
    <Longitude>-86.4769444444</Longitude>
    <Frequency>118.175</Frequency>
    <Telephone>615-325-4971</Telephone>
  </RESULTS>
  <RESULTS>
    <ICAO>1M9</ICAO>
    <Airport_Name>LAKE BARKLEY STATE PARK</Airport_Name>
    <Latitude>36.8188888889</Latitude>
    <Longitude>-87.9088888889</Longitude>
    <Frequency>119.025</Frequency>
    <Telephone>270-924-5916</Telephone>
  </RESULTS>
  <RESULTS>
    <ICAO>1O2</ICAO>
    <Airport_Name>LAMPSON FIELD</Airport_Name>
    <Latitude>38.9902777778</Latitude>
    <Longitude>-122.8997222222</Longitude>
    <Frequency>118.35</Frequency>
    <Telephone>707-262-0380</Telephone>
  </RESULTS>
  <RESULTS>
    <ICAO>1P1</ICAO>
    <Airport_Name>PLYMOUTH MUNI</Airport_Name>
    <Latitude>43.7772222222</Latitude>
    <Longitude>-71.7561111111</Longitude>
    <Frequency>118.45</Frequency>
    <Telephone>603-536-1698</Telephone>
  </RESULTS>
  <RESULTS>
    <ICAO>1R7</ICAO>
    <Airport_Name>BROOKHAVEN-LINCOLN COUNTY</Airport_Name>
    <Latitude>31.6057605556</Latitude>
    <Longitude>-90.4070483333</Longitude>
    <Frequency>118.125</Frequency>
    <Telephone>601-833-3209</Telephone>
  </RESULTS>
  <RESULTS>
    <ICAO>1V6</ICAO>
    <Airport_Name>FREMONT COUNTY</Airport_Name>
    <Latitude>38.4285599444</Latitude>
    <Longitude>-105.1068541667</Longitude>
    <Frequency>120.025</Frequency>
    <Telephone />
  </RESULTS>
  <RESULTS>
    <ICAO>20U</ICAO>
    <Airport_Name>BEACH</Airport_Name>
    <Latitude>46.9251666667</Latitude>
    <Longitude>-103.9820555556</Longitude>
    <Frequency>118.175</Frequency>
    <Telephone>701-872-9225</Telephone>
  </RESULTS>
  <RESULTS>
    <ICAO>20V</ICAO>
    <Airport_Name>MC ELROY AIRFIELD</Airport_Name>
    <Latitude>40.0538888889</Latitude>
    <Longitude>-106.3627777778</Longitude>
    <Frequency>118.425</Frequency>
    <Telephone>970-724-9659</Telephone>
  </RESULTS>
  <RESULTS>
    <ICAO>21D</ICAO>
    <Airport_Name>LAKE ELMO</Airport_Name>
    <Latitude>44.9975</Latitude>
    <Longitude>-92.8556666667</Longitude>
    <Frequency>120.075</Frequency>
    <Telephone>651-779-5949</Telephone>
  </RESULTS>
  <RESULTS>
    <ICAO>22N</ICAO>
    <Airport_Name>JAKE ARNER MEMORIAL</Airport_Name>
    <Latitude>40.8115866667</Latitude>
    <Longitude>-75.764475</Longitude>
    <Frequency>119.350</Frequency>
    <Telephone>570-386-3423</Telephone>
  </RESULTS>
  <RESULTS>
    <ICAO>24J</ICAO>
    <Airport_Name>SUWANNEE COUNTY</Airport_Name>
    <Latitude>30.2989747222</Latitude>
    <Longitude>-83.0225980556</Longitude>
    <Frequency>118.225</Frequency>
    <Telephone>386-362-1731</Telephone>
  </RESULTS>
  <RESULTS>
    <ICAO>27A</ICAO>
    <Airport_Name>ELBERT COUNTY-PATZ FIELD</Airport_Name>
    <Latitude>34.0951972222</Latitude>
    <Longitude>-82.8158641667</Longitude>
    <Frequency>118.15</Frequency>
    <Telephone>706-283-8133</Telephone>
  </RESULTS>
  <RESULTS>
    <ICAO>27K</ICAO>
    <Airport_Name>GEORGETOWN SCOTT COUNTY - MARSHALL FLD</Airport_Name>
    <Latitude>38.2363888889</Latitude>
    <Longitude>-84.4336111111</Longitude>
    <Frequency>119.975</Frequency>
    <Telephone>502-867-1564</Telephone>
  </RESULTS>
  <RESULTS>
    <ICAO>28J</ICAO>
    <Airport_Name>PALATKA MUNI - LT. KAY LARKIN FIELD</Airport_Name>
    <Latitude>29.6583824722</Latitude>
    <Longitude>-81.6895030556</Longitude>
    <Frequency>119.92</Frequency>
    <Telephone>386-312-2212</Telephone>
  </RESULTS>
  <RESULTS>
    <ICAO>2A0</ICAO>
    <Airport_Name>MARK ANTON</Airport_Name>
    <Latitude>35.4861111111</Latitude>
    <Longitude>-84.9311111111</Longitude>
    <Frequency>135.075</Frequency>
    <Telephone>423-775-4695</Telephone>
  </RESULTS>
  <RESULTS>
    <ICAO>2C7</ICAO>
    <Airport_Name>SHAKTOOLIK</Airport_Name>
    <Latitude>64.3710833333</Latitude>
    <Longitude>-161.2239722222</Longitude>
    <Frequency>121.55</Frequency>
    <Telephone>907-955-3896</Telephone>
  </RESULTS>
  <RESULTS>
    <ICAO>2C8</ICAO>
    <Airport_Name>CAVALIER MUNI</Airport_Name>
    <Latitude>48.7837222222</Latitude>
    <Longitude>-97.6319722222</Longitude>
    <Frequency>118.275</Frequency>
    <Telephone>701-265-8050</Telephone>
  </RESULTS>
  <RESULTS>
    <ICAO>2D5</ICAO>
    <Airport_Name>OAKES MUNI</Airport_Name>
    <Latitude>46.1731150556</Latitude>
    <Longitude>-98.0798897778</Longitude>
    <Frequency>118.675</Frequency>
    <Telephone>701-742-3991</Telephone>
  </RESULTS>
  <RESULTS>
    <ICAO>2G4</ICAO>
    <Airport_Name>GARRETT COUNTY</Airport_Name>
    <Latitude>39.5798258333</Latitude>
    <Longitude>-79.3421522222</Longitude>
    <Frequency>120.125</Frequency>
    <Telephone>301-746-8443</Telephone>
  </RESULTS>
  <RESULTS>
    <ICAO>2G9</ICAO>
    <Airport_Name>SOMERSET COUNTY</Airport_Name>
    <Latitude>40.0388888889</Latitude>
    <Longitude>-79.0130555556</Longitude>
    <Frequency>133.8</Frequency>
    <Telephone>814-443-2114</Telephone>
  </RESULTS>
  <RESULTS>
    <ICAO>2I0</ICAO>
    <Airport_Name>MADISONVILLE MUNI</Airport_Name>
    <Latitude>37.355</Latitude>
    <Longitude>-87.3997222222</Longitude>
    <Frequency>126.475</Frequency>
    <Telephone>270-821-4554</Telephone>
  </RESULTS>
  <RESULTS>
    <ICAO>2IS</ICAO>
    <Airport_Name>AIRGLADES</Airport_Name>
    <Latitude>26.7351666667</Latitude>
    <Longitude>-81.0510555556</Longitude>
    <Frequency>124.175</Frequency>
    <Telephone>863-983-7020</Telephone>
  </RESULTS>
  <RESULTS>
    <ICAO>2K3</ICAO>
    <Airport_Name>STANTON COUNTY MUNI</Airport_Name>
    <Latitude>37.5853916667</Latitude>
    <Longitude>-101.7323027778</Longitude>
    <Frequency>124.175</Frequency>
    <Telephone>620-492-2100</Telephone>
  </RESULTS>
  <RESULTS>
    <ICAO>2M2</ICAO>
    <Airport_Name>LAWRENCEBURG-LAWRENCE COUNTY</Airport_Name>
    <Latitude>35.2341666667</Latitude>
    <Longitude>-87.2580555556</Longitude>
    <Frequency>120.175</Frequency>
    <Telephone>931-766-1585</Telephone>
  </RESULTS>
  <RESULTS>
    <ICAO>2M8</ICAO>
    <Airport_Name>CHARLES W. BAKER</Airport_Name>
    <Latitude>35.2766150833</Latitude>
    <Longitude>-89.9299675833</Longitude>
    <Frequency>122.8</Frequency>
    <Telephone>(901) 873-0903</Telephone>
  </RESULTS>
  <RESULTS>
    <ICAO>2R2</ICAO>
    <Airport_Name>HENDRICKS COUNTY-GORDON GRAHAM FLD</Airport_Name>
    <Latitude>39.7510833333</Latitude>
    <Longitude>-86.4731666667</Longitude>
    <Frequency>118.025</Frequency>
    <Telephone>317-718-4872</Telephone>
  </RESULTS>
  <RESULTS>
    <ICAO>2V5</ICAO>
    <Airport_Name>WRAY MUNI</Airport_Name>
    <Latitude>40.0994305556</Latitude>
    <Longitude>-102.2430888889</Longitude>
    <Frequency>118.250</Frequency>
    <Telephone>970-332-5930</Telephone>
  </RESULTS>
  <RESULTS>
    <ICAO>2W6</ICAO>
    <Airport_Name>ST. MARY'S COUNTY RGNL</Airport_Name>
    <Latitude>38.3162833333</Latitude>
    <Longitude>-76.5428166667</Longitude>
    <Frequency>119.575</Frequency>
    <Telephone>301-373-6514</Telephone>
  </RESULTS>
  <RESULTS>
    <ICAO>33V</ICAO>
    <Airport_Name>WALDEN-JACKSON COUNTY</Airport_Name>
    <Latitude>40.7454027778</Latitude>
    <Longitude>-106.2753666667</Longitude>
    <Frequency>118.625</Frequency>
    <Telephone>970-723-4513</Telephone>
  </RESULTS>
  <RESULTS>
    <ICAO>36U</ICAO>
    <Airport_Name>HEBER CITY MUNI - RUSS MCDONALD FIELD</Airport_Name>
    <Latitude>40.4818055556</Latitude>
    <Longitude>-111.4288055556</Longitude>
    <Frequency>124.825</Frequency>
    <Telephone>435-657-0892</Telephone>
  </RESULTS>
  <RESULTS>
    <ICAO>38AZ</ICAO>
    <Airport_Name>PEABODY BEDARD FIELD</Airport_Name>
    <Latitude>36.471665</Latitude>
    <Longitude>-110.4179147222</Longitude>
    <Frequency>119.225</Frequency>
    <Telephone />
  </RESULTS>
  <RESULTS>
    <ICAO>3A1</ICAO>
    <Airport_Name>FOLSOM FIELD</Airport_Name>
    <Latitude>34.2721944444</Latitude>
    <Longitude>-86.8583333333</Longitude>
    <Frequency>124.175</Frequency>
    <Telephone>256-775-7476</Telephone>
  </RESULTS>
  <RESULTS>
    <ICAO>3I2</ICAO>
    <Airport_Name>MASON COUNTY</Airport_Name>
    <Latitude>38.9147222222</Latitude>
    <Longitude>-82.0986111111</Longitude>
    <Frequency>119.675</Frequency>
    <Telephone>304-675-4618</Telephone>
  </RESULTS>
  <RESULTS>
    <ICAO>3J7</ICAO>
    <Airport_Name>GREENE COUNTY RGNL</Airport_Name>
    <Latitude>33.5990555556</Latitude>
    <Longitude>-83.1401111111</Longitude>
    <Frequency>124.525</Frequency>
    <Telephone>706-453-0017</Telephone>
  </RESULTS>
  <RESULTS>
    <ICAO>3K3</ICAO>
    <Airport_Name>SYRACUSE-HAMILTON COUNTY MUNI</Airport_Name>
    <Latitude>37.9985830556</Latitude>
    <Longitude>-101.7476077778</Longitude>
    <Frequency>119.975</Frequency>
    <Telephone>620-384-5869</Telephone>
  </RESULTS>
  <RESULTS>
    <ICAO>3LF</ICAO>
    <Airport_Name>LITCHFIELD MUNI</Airport_Name>
    <Latitude>39.1625</Latitude>
    <Longitude>-89.6746388889</Longitude>
    <Frequency>118.175</Frequency>
    <Telephone>217-324-4735</Telephone>
  </RESULTS>
  <RESULTS>
    <ICAO>3T5</ICAO>
    <Airport_Name>FAYETTE RGNL AIR CENTER</Airport_Name>
    <Latitude>29.9079722222</Latitude>
    <Longitude>-96.95</Longitude>
    <Frequency>124.175</Frequency>
    <Telephone>979-242-5777</Telephone>
  </RESULTS>
  <RESULTS>
    <ICAO>3U3</ICAO>
    <Airport_Name>BOWMAN FIELD</Airport_Name>
    <Latitude>46.1516222222</Latitude>
    <Longitude>-112.8682805556</Longitude>
    <Frequency>122.8</Frequency>
    <Telephone>406-563-8275</Telephone>
  </RESULTS>
  <RESULTS>
    <ICAO>40J</ICAO>
    <Airport_Name>PERRY-FOLEY</Airport_Name>
    <Latitude>30.0694444444</Latitude>
    <Longitude>-83.5805555556</Longitude>
    <Frequency>118.375</Frequency>
    <Telephone>850-838-3526</Telephone>
  </RESULTS>
  <RESULTS>
    <ICAO>42J</ICAO>
    <Airport_Name>KEYSTONE AIRPARK</Airport_Name>
    <Latitude>29.8452375</Latitude>
    <Longitude>-82.0455177778</Longitude>
    <Frequency>124.275</Frequency>
    <Telephone>352-473-8273</Telephone>
  </RESULTS>
  <RESULTS>
    <ICAO>46D</ICAO>
    <Airport_Name>CARRINGTON MUNI</Airport_Name>
    <Latitude>47.4511111111</Latitude>
    <Longitude>-99.1513333333</Longitude>
    <Frequency>118.575</Frequency>
    <Telephone>701-652-1875</Telephone>
  </RESULTS>
  <RESULTS>
    <ICAO>49A</ICAO>
    <Airport_Name>GILMER COUNTY</Airport_Name>
    <Latitude>34.6300833333</Latitude>
    <Longitude>-84.5271194444</Longitude>
    <Frequency>118.075</Frequency>
    <Telephone>706 276-4513</Telephone>
  </RESULTS>
  <RESULTS>
    <ICAO>49T</ICAO>
    <Airport_Name>DALLAS CBD VERTIPORT</Airport_Name>
    <Latitude>32.7733333333</Latitude>
    <Longitude>-96.8002777778</Longitude>
    <Frequency>135.425</Frequency>
    <Telephone>214-670-1243</Telephone>
  </RESULTS>
  <RESULTS>
    <ICAO>4A6</ICAO>
    <Airport_Name>SCOTTSBORO MUNI-WORD FIELD</Airport_Name>
    <Latitude>34.6872277778</Latitude>
    <Longitude>-86.0050361111</Longitude>
    <Frequency>120.125</Frequency>
    <Telephone>(256) 259-1148</Telephone>
  </RESULTS>
  <RESULTS>
    <ICAO>4A7</ICAO>
    <Airport_Name>CLAYTON COUNTY - TARA FIELD</Airport_Name>
    <Latitude>33.3891111111</Latitude>
    <Longitude>-84.3323611111</Longitude>
    <Frequency>124.825</Frequency>
    <Telephone>770-707-1719</Telephone>
  </RESULTS>
  <RESULTS>
    <ICAO>4A9</ICAO>
    <Airport_Name>ISBELL FIELD</Airport_Name>
    <Latitude>34.4727777778</Latitude>
    <Longitude>-85.7222222222</Longitude>
    <Frequency>119.025</Frequency>
    <Telephone>256-845-5397</Telephone>
  </RESULTS>
  <RESULTS>
    <ICAO>4I3</ICAO>
    <Airport_Name>KNOX COUNTY</Airport_Name>
    <Latitude>40.3289166667</Latitude>
    <Longitude>-82.5260833333</Longitude>
    <Frequency>126.05</Frequency>
    <Telephone>740-397-6297</Telephone>
  </RESULTS>
  <RESULTS>
    <ICAO>4I7</ICAO>
    <Airport_Name>PUTNAM COUNTY</Airport_Name>
    <Latitude>39.6335555556</Latitude>
    <Longitude>-86.8138055556</Longitude>
    <Frequency>118.125</Frequency>
    <Telephone>765-653-1789</Telephone>
  </RESULTS>
  <RESULTS>
    <ICAO>4M9</ICAO>
    <Airport_Name>CORNING MUNI</Airport_Name>
    <Latitude>36.4080555556</Latitude>
    <Longitude>-90.6497222222</Longitude>
    <Frequency>118.325</Frequency>
    <Telephone>870-857-9702</Telephone>
  </RESULTS>
  <RESULTS>
    <ICAO>4O4</ICAO>
    <Airport_Name>MC CURTAIN COUNTY RGNL</Airport_Name>
    <Latitude>33.9133452222</Latitude>
    <Longitude>-94.8545905833</Longitude>
    <Frequency>120.0</Frequency>
    <Telephone>580-286-2217</Telephone>
  </RESULTS>
  <RESULTS>
    <ICAO>4S1</ICAO>
    <Airport_Name>GOLD BEACH MUNI</Airport_Name>
    <Latitude>42.4177777778</Latitude>
    <Longitude>-124.4233333333</Longitude>
    <Frequency>118.15</Frequency>
    <Telephone>541-247-2518</Telephone>
  </RESULTS>
  <RESULTS>
    <ICAO>4S2</ICAO>
    <Airport_Name>KEN JERNSTEDT AIRFIELD</Airport_Name>
    <Latitude>45.6745555556</Latitude>
    <Longitude>-121.5349222222</Longitude>
    <Frequency>134.375</Frequency>
    <Telephone>541-386-2386</Telephone>
  </RESULTS>
  <RESULTS>
    <ICAO>4V1</ICAO>
    <Airport_Name>SPANISH PEAKS AIRFIELD</Airport_Name>
    <Latitude>37.6941916667</Latitude>
    <Longitude>-104.788175</Longitude>
    <Frequency>123.6</Frequency>
    <Telephone>719-738-1053</Telephone>
  </RESULTS>
  <RESULTS>
    <ICAO>59B</ICAO>
    <Airport_Name>NEWTON FIELD</Airport_Name>
    <Latitude>45.6323666667</Latitude>
    <Longitude>-70.2501361111</Longitude>
    <Frequency>122.9</Frequency>
    <Telephone />
  </RESULTS>
  <RESULTS>
    <ICAO>59B</ICAO>
    <Airport_Name>NEWTON FIELD</Airport_Name>
    <Latitude>45.6323666667</Latitude>
    <Longitude>-70.2501361111</Longitude>
    <Frequency>122.9</Frequency>
    <Telephone />
  </RESULTS>
  <RESULTS>
    <ICAO>5B2</ICAO>
    <Airport_Name>SARATOGA COUNTY</Airport_Name>
    <Latitude>43.0513888889</Latitude>
    <Longitude>-73.8611111111</Longitude>
    <Frequency>132.025</Frequency>
    <Telephone>518-884-9289</Telephone>
  </RESULTS>
  <RESULTS>
    <ICAO>5C1</ICAO>
    <Airport_Name>BOERNE STAGE FIELD</Airport_Name>
    <Latitude>29.72675</Latitude>
    <Longitude>-98.6963888889</Longitude>
    <Frequency>118.725</Frequency>
    <Telephone>830-755-9099</Telephone>
  </RESULTS>
  <RESULTS>
    <ICAO>5H4</ICAO>
    <Airport_Name>HARVEY MUNI</Airport_Name>
    <Latitude>47.7912222222</Latitude>
    <Longitude>-99.93175</Longitude>
    <Frequency>118.825</Frequency>
    <Telephone>701-324-2058</Telephone>
  </RESULTS>
  <RESULTS>
    <ICAO>5K2</ICAO>
    <Airport_Name>TRIBUNE MUNI</Airport_Name>
    <Latitude>38.4516653056</Latitude>
    <Longitude>-101.7494018889</Longitude>
    <Frequency>119.075</Frequency>
    <Telephone>620-376-2336</Telephone>
  </RESULTS>
  <RESULTS>
    <ICAO>65S</ICAO>
    <Airport_Name>BOUNDARY COUNTY</Airport_Name>
    <Latitude>48.7252916667</Latitude>
    <Longitude>-116.2931305556</Longitude>
    <Frequency>132.575</Frequency>
    <Telephone>208-267-3995</Telephone>
  </RESULTS>
  <RESULTS>
    <ICAO>6A1</ICAO>
    <Airport_Name>BUTLER MUNI</Airport_Name>
    <Latitude>32.5733</Latitude>
    <Longitude>-84.247</Longitude>
    <Frequency>119.525</Frequency>
    <Telephone>478-862-2966</Telephone>
  </RESULTS>
  <RESULTS>
    <ICAO>6A2</ICAO>
    <Airport_Name>GRIFFIN-SPALDING COUNTY</Airport_Name>
    <Latitude>33.2269722222</Latitude>
    <Longitude>-84.2749444444</Longitude>
    <Frequency>119.750</Frequency>
    <Telephone>770-227-3934</Telephone>
  </RESULTS>
  <RESULTS>
    <ICAO>6A4</ICAO>
    <Airport_Name>JOHNSON COUNTY</Airport_Name>
    <Latitude>36.4177777778</Latitude>
    <Longitude>-81.825</Longitude>
    <Frequency>126.225</Frequency>
    <Telephone>423-727-4365</Telephone>
  </RESULTS>
  <RESULTS>
    <ICAO>6I2</ICAO>
    <Airport_Name>LEBANON-SPRINGFIELD</Airport_Name>
    <Latitude>37.6351916667</Latitude>
    <Longitude>-85.2417194444</Longitude>
    <Frequency>119.725</Frequency>
    <Telephone>866-754-5623</Telephone>
  </RESULTS>
  <RESULTS>
    <ICAO>6R3</ICAO>
    <Airport_Name>CLEVELAND MUNI</Airport_Name>
    <Latitude>30.3579722222</Latitude>
    <Longitude>-95.0070305556</Longitude>
    <Frequency>119.325</Frequency>
    <Telephone>281-593-1754</Telephone>
  </RESULTS>
  <RESULTS>
    <ICAO>6S0</ICAO>
    <Airport_Name>BIG TIMBER</Airport_Name>
    <Latitude>45.8062611111</Latitude>
    <Longitude>-109.973575</Longitude>
    <Frequency>132.050</Frequency>
    <Telephone>406-932-6051</Telephone>
  </RESULTS>
  <RESULTS>
    <ICAO>6S2</ICAO>
    <Airport_Name>FLORENCE MUNI</Airport_Name>
    <Latitude>43.9839027778</Latitude>
    <Longitude>-124.1098527778</Longitude>
    <Frequency>118.225</Frequency>
    <Telephone>541-997-8664</Telephone>
  </RESULTS>
  <RESULTS>
    <ICAO>6S5</ICAO>
    <Airport_Name>RAVALLI COUNTY</Airport_Name>
    <Latitude>46.2545861111</Latitude>
    <Longitude>-114.1287944444</Longitude>
    <Frequency>119.825</Frequency>
    <Telephone>406-375-9149</Telephone>
  </RESULTS>
  <RESULTS>
    <ICAO>74V</ICAO>
    <Airport_Name>ROOSEVELT MUNI</Airport_Name>
    <Latitude>40.28</Latitude>
    <Longitude>-110.0497222222</Longitude>
    <Frequency>118.975</Frequency>
    <Telephone>435-722-4201</Telephone>
  </RESULTS>
  <RESULTS>
    <ICAO>79J</ICAO>
    <Airport_Name>SOUTH ALABAMA RGNL AT BILL BENTON FIELD</Airport_Name>
    <Latitude>31.3083611111</Latitude>
    <Longitude>-86.3922222222</Longitude>
    <Frequency>134.875</Frequency>
    <Telephone>334-222-9770</Telephone>
  </RESULTS>
  <RESULTS>
    <ICAO>79PN</ICAO>
    <Airport_Name>GEISINGER ROOFTOP</Airport_Name>
    <Latitude>40.9673305556</Latitude>
    <Longitude>-76.6071527778</Longitude>
    <Frequency>118.075</Frequency>
    <Telephone>570-271-8192</Telephone>
  </RESULTS>
  <RESULTS>
    <ICAO>79S</ICAO>
    <Airport_Name>FORT BENTON</Airport_Name>
    <Latitude>47.8439055556</Latitude>
    <Longitude>-110.6354083333</Longitude>
    <Frequency>122.8</Frequency>
    <Telephone>406-622-5976</Telephone>
  </RESULTS>
  <RESULTS>
    <ICAO>7L2</ICAO>
    <Airport_Name>LINTON MUNI</Airport_Name>
    <Latitude>46.2206408889</Latitude>
    <Longitude>-100.2456238611</Longitude>
    <Frequency>118.175</Frequency>
    <Telephone>701-254-4965</Telephone>
  </RESULTS>
  <RESULTS>
    <ICAO>7N0</ICAO>
    <Airport_Name>NEW ORLEANS DOWNTOWN</Airport_Name>
    <Latitude>29.9526833333</Latitude>
    <Longitude>-90.0827333333</Longitude>
    <Frequency>133.10</Frequency>
    <Telephone>504-525-1711</Telephone>
  </RESULTS>
  <RESULTS>
    <ICAO>7V6</ICAO>
    <Airport_Name>CAMP GUERNSEY</Airport_Name>
    <Latitude>42.2596705556</Latitude>
    <Longitude>-104.7282736111</Longitude>
    <Frequency>118.925</Frequency>
    <Telephone>307-836-7862</Telephone>
  </RESULTS>
  <RESULTS>
    <ICAO>82V</ICAO>
    <Airport_Name>PINE BLUFFS MUNI</Airport_Name>
    <Latitude>41.1508513889</Latitude>
    <Longitude>-104.1287580556</Longitude>
    <Frequency>132.425</Frequency>
    <Telephone>307-245-3613</Telephone>
  </RESULTS>
  <RESULTS>
    <ICAO>88M</ICAO>
    <Airport_Name>EUREKA</Airport_Name>
    <Latitude>48.9670583333</Latitude>
    <Longitude>-115.0779583333</Longitude>
    <Frequency>118.375</Frequency>
    <Telephone>406-889-3366</Telephone>
  </RESULTS>
  <RESULTS>
    <ICAO>8A0</ICAO>
    <Airport_Name>ALBERTVILLE RGNL-THOMAS J BRUMLIK FLD</Airport_Name>
    <Latitude>34.2319483333</Latitude>
    <Longitude>-86.2480711111</Longitude>
    <Frequency>119.575</Frequency>
    <Telephone>256-891-8259</Telephone>
  </RESULTS>
  <RESULTS>
    <ICAO>8A3</ICAO>
    <Airport_Name>LIVINGSTON MUNI</Airport_Name>
    <Latitude>36.4122222222</Latitude>
    <Longitude>-85.3116666667</Longitude>
    <Frequency>126.175</Frequency>
    <Telephone>931-823-3329</Telephone>
  </RESULTS>
  <RESULTS>
    <ICAO>8A4</ICAO>
    <Airport_Name>INDIANAPOLIS DOWNTOWN</Airport_Name>
    <Latitude>39.7658763889</Latitude>
    <Longitude>-86.148875</Longitude>
    <Frequency>118.250</Frequency>
    <Telephone>317-955-3160</Telephone>
  </RESULTS>
  <RESULTS>
    <ICAO>8B0</ICAO>
    <Airport_Name>STEVEN A. BEAN MUNI</Airport_Name>
    <Latitude>44.9900555556</Latitude>
    <Longitude>-70.66175</Longitude>
    <Frequency>118.000</Frequency>
    <Telephone>207-864-5250</Telephone>
  </RESULTS>
  <RESULTS>
    <ICAO>8D4</ICAO>
    <Airport_Name>PAUL C. MILLER-SPARTA</Airport_Name>
    <Latitude>43.129925</Latitude>
    <Longitude>-85.6767055556</Longitude>
    <Frequency>132.95</Frequency>
    <Telephone>616-887-2039</Telephone>
  </RESULTS>
  <RESULTS>
    <ICAO>9A1</ICAO>
    <Airport_Name>COVINGTON MUNI</Airport_Name>
    <Latitude>33.6325</Latitude>
    <Longitude>-83.8494444444</Longitude>
    <Frequency>118.725</Frequency>
    <Telephone>770-385-7057</Telephone>
  </RESULTS>
  <RESULTS>
    <ICAO>9A4</ICAO>
    <Airport_Name>COURTLAND</Airport_Name>
    <Latitude>34.6555</Latitude>
    <Longitude>-87.348</Longitude>
    <Frequency>118.525</Frequency>
    <Telephone>(256) 637-0903</Telephone>
  </RESULTS>
  <RESULTS>
    <ICAO>9A5</ICAO>
    <Airport_Name>BARWICK LAFAYETTE</Airport_Name>
    <Latitude>34.6884791667</Latitude>
    <Longitude>-85.2903319444</Longitude>
    <Frequency>119.775</Frequency>
    <Telephone>706-639-1976</Telephone>
  </RESULTS>
  <RESULTS>
    <ICAO>9D7</ICAO>
    <Airport_Name>CANDO MUNI</Airport_Name>
    <Latitude>48.4800277778</Latitude>
    <Longitude>-99.2363888889</Longitude>
    <Frequency>118.125</Frequency>
    <Telephone>701-968-3625</Telephone>
  </RESULTS>
  <RESULTS>
    <ICAO>9K7</ICAO>
    <Airport_Name>ELLSWORTH MUNI</Airport_Name>
    <Latitude>38.7504</Latitude>
    <Longitude>-98.229275</Longitude>
    <Frequency>119.675</Frequency>
    <Telephone>785-472-5609</Telephone>
  </RESULTS>
  <RESULTS>
    <ICAO>9K8</ICAO>
    <Airport_Name>KINGMAN AIRPORT - CLYDE CESSNA FIELD</Airport_Name>
    <Latitude>37.6690277778</Latitude>
    <Longitude>-98.1238888889</Longitude>
    <Frequency>119.325</Frequency>
    <Telephone>620-532-1272</Telephone>
  </RESULTS>
  <RESULTS>
    <ICAO>9S9</ICAO>
    <Airport_Name>LEXINGTON</Airport_Name>
    <Latitude>45.4551111111</Latitude>
    <Longitude>-119.6858888889</Longitude>
    <Frequency>134.475</Frequency>
    <Telephone>541-989-8557</Telephone>
  </RESULTS>
  <RESULTS>
    <ICAO>AA27</ICAO>
    <Airport_Name>PIONEER</Airport_Name>
    <Latitude>70.4141</Latitude>
    <Longitude>-150.0185916667</Longitude>
    <Frequency>135.825</Frequency>
    <Telephone>907-670-6525</Telephone>
  </RESULTS>
  <RESULTS>
    <ICAO>AAA</ICAO>
    <Airport_Name>LOGAN COUNTY</Airport_Name>
    <Latitude>40.1586111111</Latitude>
    <Longitude>-89.335</Longitude>
    <Frequency>118.775</Frequency>
    <Telephone>217-732-9605</Telephone>
  </RESULTS>
  <RESULTS>
    <ICAO>AAF</ICAO>
    <Airport_Name>APALACHICOLA REGIONAL</Airport_Name>
    <Latitude>29.7266666667</Latitude>
    <Longitude>-85.0297222222</Longitude>
    <Frequency>119.925</Frequency>
    <Telephone>850-653-8271</Telephone>
  </RESULTS>
  <RESULTS>
    <ICAO>AAO</ICAO>
    <Airport_Name>COLONEL JAMES JABARA</Airport_Name>
    <Latitude>37.7475</Latitude>
    <Longitude>-97.2211111111</Longitude>
    <Frequency>134.025</Frequency>
    <Telephone>316-636-2541</Telephone>
  </RESULTS>
  <RESULTS>
    <ICAO>AAS</ICAO>
    <Airport_Name>TAYLOR COUNTY</Airport_Name>
    <Latitude>37.3583333333</Latitude>
    <Longitude>-85.3094444444</Longitude>
    <Frequency>121.125</Frequency>
    <Telephone>270-789-1985</Telephone>
  </RESULTS>
  <RESULTS>
    <ICAO>AAT</ICAO>
    <Airport_Name>ALTURAS MUNI</Airport_Name>
    <Latitude>41.4829722222</Latitude>
    <Longitude>-120.5653888889</Longitude>
    <Frequency>124.175</Frequency>
    <Telephone>530-233-5251</Telephone>
  </RESULTS>
  <RESULTS>
    <ICAO>ABR</ICAO>
    <Airport_Name>ABERDEEN RGNL</Airport_Name>
    <Latitude>45.4491666667</Latitude>
    <Longitude>-98.4219444444</Longitude>
    <Frequency>125.875</Frequency>
    <Telephone>605-229-4512</Telephone>
  </RESULTS>
  <RESULTS>
    <ICAO>ACB</ICAO>
    <Airport_Name>ANTRIM COUNTY</Airport_Name>
    <Latitude>44.9886111111</Latitude>
    <Longitude>-85.1983333333</Longitude>
    <Frequency>119.275</Frequency>
    <Telephone>231-533-8941</Telephone>
  </RESULTS>
  <RESULTS>
    <ICAO>ACJ</ICAO>
    <Airport_Name>JIMMY CARTER RGNL</Airport_Name>
    <Latitude>32.1113888889</Latitude>
    <Longitude>-84.1883333333</Longitude>
    <Frequency>128.375</Frequency>
    <Telephone>229-928-0934</Telephone>
  </RESULTS>
  <RESULTS>
    <ICAO>ACP</ICAO>
    <Airport_Name>ALLEN PARISH</Airport_Name>
    <Latitude>30.7504998333</Latitude>
    <Longitude>-92.6884914167</Longitude>
    <Frequency>118.275</Frequency>
    <Telephone>318-215-9728</Telephone>
  </RESULTS>
  <RESULTS>
    <ICAO>ACQ</ICAO>
    <Airport_Name>WASECA MUNI</Airport_Name>
    <Latitude>44.0734638889</Latitude>
    <Longitude>-93.5529436111</Longitude>
    <Frequency>118.425</Frequency>
    <Telephone>507-835-3657</Telephone>
  </RESULTS>
  <RESULTS>
    <ICAO>ACV</ICAO>
    <Airport_Name>ARCATA</Airport_Name>
    <Latitude>40.9781152778</Latitude>
    <Longitude>-124.1086188889</Longitude>
    <Frequency>118.525</Frequency>
    <Telephone>707-839-7429</Telephone>
  </RESULTS>
  <RESULTS>
    <ICAO>ADC</ICAO>
    <Airport_Name>WADENA MUNI</Airport_Name>
    <Latitude>46.449945</Latitude>
    <Longitude>-95.2108320278</Longitude>
    <Frequency>128.325</Frequency>
    <Telephone>218-631-7774</Telephone>
  </RESULTS>
  <RESULTS>
    <ICAO>ADG</ICAO>
    <Airport_Name>LENAWEE COUNTY</Airport_Name>
    <Latitude>41.8694444444</Latitude>
    <Longitude>-84.0747222222</Longitude>
    <Frequency>118.375</Frequency>
    <Telephone>517-265-9089</Telephone>
  </RESULTS>
  <RESULTS>
    <ICAO>ADH</ICAO>
    <Airport_Name>ADA MUNI</Airport_Name>
    <Latitude>34.8042619722</Latitude>
    <Longitude>-96.67119975</Longitude>
    <Frequency>118.725</Frequency>
    <Telephone>580-332-6222</Telephone>
  </RESULTS>
  <RESULTS>
    <ICAO>ADK</ICAO>
    <Airport_Name>ADAK</Airport_Name>
    <Latitude>51.8780555556</Latitude>
    <Longitude>-176.6461111111</Longitude>
    <Frequency>134.5</Frequency>
    <Telephone>907-592-8207</Telephone>
  </RESULTS>
  <RESULTS>
    <ICAO>ADT</ICAO>
    <Airport_Name>ATWOOD-RAWLINS COUNTY CITY-COUNTY</Airport_Name>
    <Latitude>39.8403385</Latitude>
    <Longitude>-101.0424829167</Longitude>
    <Frequency>118.675</Frequency>
    <Telephone>785-626-3572</Telephone>
  </RESULTS>
  <RESULTS>
    <ICAO>ADU</ICAO>
    <Airport_Name>AUDUBON COUNTY</Airport_Name>
    <Latitude>41.7013888889</Latitude>
    <Longitude>-94.9205555556</Longitude>
    <Frequency>118.075</Frequency>
    <Telephone>712-563-2101</Telephone>
  </RESULTS>
  <RESULTS>
    <ICAO>AEG</ICAO>
    <Airport_Name>DOUBLE EAGLE II</Airport_Name>
    <Latitude>35.1451666667</Latitude>
    <Longitude>-106.7951666667</Longitude>
    <Frequency>119.025</Frequency>
    <Telephone>505-842-2009</Telephone>
  </RESULTS>
  <RESULTS>
    <ICAO>AEJ</ICAO>
    <Airport_Name>CENTRAL COLORADO RGNL</Airport_Name>
    <Latitude>38.811565</Latitude>
    <Longitude>-106.1214733333</Longitude>
    <Frequency>132.925</Frequency>
    <Telephone>719-395-2599</Telephone>
  </RESULTS>
  <RESULTS>
    <ICAO>AEL</ICAO>
    <Airport_Name>ALBERT LEA MUNI</Airport_Name>
    <Latitude>43.6813888889</Latitude>
    <Longitude>-93.3672222222</Longitude>
    <Frequency>109.8</Frequency>
    <Telephone>507-377-1583</Telephone>
  </RESULTS>
  <RESULTS>
    <ICAO>AEX</ICAO>
    <Airport_Name>ALEXANDRIA INTL</Airport_Name>
    <Latitude>31.3273716667</Latitude>
    <Longitude>-92.5485561111</Longitude>
    <Frequency>123.975</Frequency>
    <Telephone>318-442-6583</Telephone>
  </RESULTS>
  <RESULTS>
    <ICAO>AFE</ICAO>
    <Airport_Name>KAKE</Airport_Name>
    <Latitude>56.9730555556</Latitude>
    <Longitude>-133.9455555556</Longitude>
    <Frequency>135.25</Frequency>
    <Telephone />
  </RESULTS>
  <RESULTS>
    <ICAO>AFJ</ICAO>
    <Airport_Name>WASHINGTON COUNTY</Airport_Name>
    <Latitude>40.1363888889</Latitude>
    <Longitude>-80.2902777778</Longitude>
    <Frequency>119.175</Frequency>
    <Telephone>724-228-3529</Telephone>
  </RESULTS>
  <RESULTS>
    <ICAO>AFK</ICAO>
    <Airport_Name>NEBRASKA CITY MUNI</Airport_Name>
    <Latitude>40.6064459722</Latitude>
    <Longitude>-95.8665568611</Longitude>
    <Frequency>128.325</Frequency>
    <Telephone>402-873-7375</Telephone>
  </RESULTS>
  <RESULTS>
    <ICAO>AFM</ICAO>
    <Airport_Name>AMBLER</Airport_Name>
    <Latitude>67.1061111111</Latitude>
    <Longitude>-157.8536111111</Longitude>
    <Frequency>132.1</Frequency>
    <Telephone>907-445-2146</Telephone>
  </RESULTS>
  <RESULTS>
    <ICAO>AFN</ICAO>
    <Airport_Name>JAFFREY AIRPORT-SILVER RANCH</Airport_Name>
    <Latitude>42.805</Latitude>
    <Longitude>-72.0030555556</Longitude>
    <Frequency>135.875</Frequency>
    <Telephone>603-532-6195</Telephone>
  </RESULTS>
  <RESULTS>
    <ICAO>AFO</ICAO>
    <Airport_Name>AFTON MUNI</Airport_Name>
    <Latitude>42.7087777778</Latitude>
    <Longitude>-110.9421666667</Longitude>
    <Frequency>119.025</Frequency>
    <Telephone>307-885-2654</Telephone>
  </RESULTS>
  <RESULTS>
    <ICAO>AFP</ICAO>
    <Airport_Name>ANSON COUNTY -  JEFF CLOUD FIELD</Airport_Name>
    <Latitude>35.0194166667</Latitude>
    <Longitude>-80.0783611111</Longitude>
    <Frequency>119.325</Frequency>
    <Telephone>704-695-0623</Telephone>
  </RESULTS>
  <RESULTS>
    <ICAO>AGN</ICAO>
    <Airport_Name>ANGOON</Airport_Name>
    <Latitude>57.5035552778</Latitude>
    <Longitude>-134.5850938889</Longitude>
    <Frequency>118.325</Frequency>
    <Telephone>907-788-3120</Telephone>
  </RESULTS>
  <RESULTS>
    <ICAO>AHN</ICAO>
    <Airport_Name>ATHENS/BEN EPPS</Airport_Name>
    <Latitude>33.9486111111</Latitude>
    <Longitude>-83.3263888889</Longitude>
    <Frequency>132.875</Frequency>
    <Telephone>706-613-7373</Telephone>
  </RESULTS>
  <RESULTS>
    <ICAO>AHQ</ICAO>
    <Airport_Name>WAHOO MUNI</Airport_Name>
    <Latitude>41.2406080556</Latitude>
    <Longitude>-96.594555</Longitude>
    <Frequency>125.975</Frequency>
    <Telephone>402-443-4030</Telephone>
  </RESULTS>
  <RESULTS>
    <ICAO>AIA</ICAO>
    <Airport_Name>ALLIANCE MUNI</Airport_Name>
    <Latitude>42.0533333333</Latitude>
    <Longitude>-102.8036111111</Longitude>
    <Frequency>135.075</Frequency>
    <Telephone>308-762-1221</Telephone>
  </RESULTS>
  <RESULTS>
    <ICAO>AIB</ICAO>
    <Airport_Name>HOPKINS FIELD</Airport_Name>
    <Latitude>38.2389777778</Latitude>
    <Longitude>-108.5667361111</Longitude>
    <Frequency>132.525</Frequency>
    <Telephone>970-864-2325</Telephone>
  </RESULTS>
  <RESULTS>
    <ICAO>AID</ICAO>
    <Airport_Name>ANDERSON MUNI-DARLINGTON FIELD</Airport_Name>
    <Latitude>40.1086111111</Latitude>
    <Longitude>-85.6130555556</Longitude>
    <Frequency>128.55</Frequency>
    <Telephone>765-378-1510</Telephone>
  </RESULTS>
  <RESULTS>
    <ICAO>AIG</ICAO>
    <Airport_Name>LANGLADE COUNTY</Airport_Name>
    <Latitude>45.1541666667</Latitude>
    <Longitude>-89.1108333333</Longitude>
    <Frequency>119.075</Frequency>
    <Telephone>715-627-2869</Telephone>
  </RESULTS>
  <RESULTS>
    <ICAO>AIK</ICAO>
    <Airport_Name>AIKEN MUNI</Airport_Name>
    <Latitude>33.6493888889</Latitude>
    <Longitude>-81.6850277778</Longitude>
    <Frequency>118.025</Frequency>
    <Telephone>803-643-8664</Telephone>
  </RESULTS>
  <RESULTS>
    <ICAO>AIO</ICAO>
    <Airport_Name>ATLANTIC MUNI</Airport_Name>
    <Latitude>41.4072222222</Latitude>
    <Longitude>-95.0469444444</Longitude>
    <Frequency>127.825</Frequency>
    <Telephone>712-243-2748</Telephone>
  </RESULTS>
  <RESULTS>
    <ICAO>AIT</ICAO>
    <Airport_Name>AITKIN MUNI-STEVE KURTZ FIELD</Airport_Name>
    <Latitude>46.5477777778</Latitude>
    <Longitude>-93.6769444444</Longitude>
    <Frequency>118.675</Frequency>
    <Telephone>218-927-2101</Telephone>
  </RESULTS>
  <RESULTS>
    <ICAO>AIZ</ICAO>
    <Airport_Name>LEE C FINE MEMORIAL</Airport_Name>
    <Latitude>38.0961111111</Latitude>
    <Longitude>-92.5494444444</Longitude>
    <Frequency>135.325</Frequency>
    <Telephone>573-348-0847</Telephone>
  </RESULTS>
  <RESULTS>
    <ICAO>AJC</ICAO>
    <Airport_Name>CHIGNIK</Airport_Name>
    <Latitude>56.3113888889</Latitude>
    <Longitude>-158.3733333333</Longitude>
    <Frequency>135.75</Frequency>
    <Telephone>907-749-2402</Telephone>
  </RESULTS>
  <RESULTS>
    <ICAO>AJG</ICAO>
    <Airport_Name>MOUNT CARMEL MUNI</Airport_Name>
    <Latitude>38.6065555556</Latitude>
    <Longitude>-87.7266944444</Longitude>
    <Frequency>134.900</Frequency>
    <Telephone>618-948-2184</Telephone>
  </RESULTS>
  <RESULTS>
    <ICAO>AJO</ICAO>
    <Airport_Name>CORONA MUNI</Airport_Name>
    <Latitude>33.8976540833</Latitude>
    <Longitude>-117.60243975</Longitude>
    <Frequency>132.175</Frequency>
    <Telephone>951-340-4764</Telephone>
  </RESULTS>
  <RESULTS>
    <ICAO>AJR</ICAO>
    <Airport_Name>HABERSHAM COUNTY</Airport_Name>
    <Latitude>34.4990111111</Latitude>
    <Longitude>-83.5553416667</Longitude>
    <Frequency>119.175</Frequency>
    <Telephone>706-778-3675</Telephone>
  </RESULTS>
  <RESULTS>
    <ICAO>AJZ</ICAO>
    <Airport_Name>BLAKE FIELD</Airport_Name>
    <Latitude>38.7868611111</Latitude>
    <Longitude>-108.0658388889</Longitude>
    <Frequency>134.0</Frequency>
    <Telephone>970-874-3251</Telephone>
  </RESULTS>
  <RESULTS>
    <ICAO>AK32</ICAO>
    <Airport_Name>OOOGURUK ISLAND</Airport_Name>
    <Latitude>70.4954222222</Latitude>
    <Longitude>-150.2534666667</Longitude>
    <Frequency>120.000</Frequency>
    <Telephone>907-670-6628</Telephone>
  </RESULTS>
  <RESULTS>
    <ICAO>AKH</ICAO>
    <Airport_Name>GASTONIA MUNI</Airport_Name>
    <Latitude>35.2026388889</Latitude>
    <Longitude>-81.1498888889</Longitude>
    <Frequency>135.725</Frequency>
    <Telephone>704-868-9034</Telephone>
  </RESULTS>
  <RESULTS>
    <ICAO>AKK</ICAO>
    <Airport_Name>AKHIOK</Airport_Name>
    <Latitude>56.9386111111</Latitude>
    <Longitude>-154.1825</Longitude>
    <Frequency>118.325</Frequency>
    <Telephone>907-836-2207</Telephone>
  </RESULTS>
  <RESULTS>
    <ICAO>AKO</ICAO>
    <Airport_Name>COLORADO PLAINS RGNL</Airport_Name>
    <Latitude>40.1755555556</Latitude>
    <Longitude>-103.2219444444</Longitude>
    <Frequency>135.475</Frequency>
    <Telephone>970-345-2320</Telephone>
  </RESULTS>
  <RESULTS>
    <ICAO>AKP</ICAO>
    <Airport_Name>ANAKTUVUK PASS</Airport_Name>
    <Latitude>68.1347222222</Latitude>
    <Longitude>-151.7375</Longitude>
    <Frequency>135.75</Frequency>
    <Telephone>907-661-3020</Telephone>
  </RESULTS>
  <RESULTS>
    <ICAO>AKQ</ICAO>
    <Airport_Name>WAKEFIELD MUNI</Airport_Name>
    <Latitude>36.9872222222</Latitude>
    <Longitude>-77.0011111111</Longitude>
    <Frequency>128.325</Frequency>
    <Telephone>757-899-2300</Telephone>
  </RESULTS>
  <RESULTS>
    <ICAO>AKR</ICAO>
    <Airport_Name>AKRON FULTON INTL</Airport_Name>
    <Latitude>41.0375</Latitude>
    <Longitude>-81.4669166667</Longitude>
    <Frequency>126.825</Frequency>
    <Telephone>330-724-4237</Telephone>
  </RESULTS>
  <RESULTS>
    <ICAO>AKW</ICAO>
    <Airport_Name>KLAWOCK</Airport_Name>
    <Latitude>55.5791666667</Latitude>
    <Longitude>-133.0761111111</Longitude>
    <Frequency>135.45</Frequency>
    <Telephone>907-755-2641</Telephone>
  </RESULTS>
  <RESULTS>
    <ICAO>ALI</ICAO>
    <Airport_Name>ALICE INTL</Airport_Name>
    <Latitude>27.7408888889</Latitude>
    <Longitude>-98.0269444444</Longitude>
    <Frequency>119.225</Frequency>
    <Telephone>361-668-0069</Telephone>
  </RESULTS>
  <RESULTS>
    <ICAO>ALM</ICAO>
    <Airport_Name>ALAMOGORDO-WHITE SANDS RGNL</Airport_Name>
    <Latitude>32.84</Latitude>
    <Longitude>-105.9905555556</Longitude>
    <Frequency>127.825</Frequency>
    <Telephone>575-439-4112</Telephone>
  </RESULTS>
  <RESULTS>
    <ICAO>ALN</ICAO>
    <Airport_Name>ST LOUIS RGNL</Airport_Name>
    <Latitude>38.8899163611</Latitude>
    <Longitude>-90.0459879722</Longitude>
    <Frequency>128.0</Frequency>
    <Telephone>618-259-7231</Telephone>
  </RESULTS>
  <RESULTS>
    <ICAO>ALS</ICAO>
    <Airport_Name>SAN LUIS VALLEY RGNL/BERGMAN FIELD</Airport_Name>
    <Latitude>37.435</Latitude>
    <Longitude>-105.8669444444</Longitude>
    <Frequency>135.175</Frequency>
    <Telephone>719-589-5669</Telephone>
  </RESULTS>
  <RESULTS>
    <ICAO>ALW</ICAO>
    <Airport_Name>WALLA WALLA RGNL</Airport_Name>
    <Latitude>46.0947777778</Latitude>
    <Longitude>-118.289</Longitude>
    <Frequency>135.875</Frequency>
    <Telephone>509-525-3014</Telephone>
  </RESULTS>
  <RESULTS>
    <ICAO>ALX</ICAO>
    <Airport_Name>THOMAS C RUSSELL FLD</Airport_Name>
    <Latitude>32.915</Latitude>
    <Longitude>-85.98</Longitude>
    <Frequency>118.325</Frequency>
    <Telephone>256-329-1820</Telephone>
  </RESULTS>
  <RESULTS>
    <ICAO>AMG</ICAO>
    <Airport_Name>BACON COUNTY</Airport_Name>
    <Latitude>31.5397222222</Latitude>
    <Longitude>-82.5075</Longitude>
    <Frequency>118.325</Frequency>
    <Telephone>912-632-8738</Telephone>
  </RESULTS>
  <RESULTS>
    <ICAO>AMN</ICAO>
    <Airport_Name>GRATIOT COMMUNITY</Airport_Name>
    <Latitude>43.3222222222</Latitude>
    <Longitude>-84.6880555556</Longitude>
    <Frequency>124.175</Frequency>
    <Telephone>989-463-3433</Telephone>
  </RESULTS>
  <RESULTS>
    <ICAO>AMW</ICAO>
    <Airport_Name>AMES MUNI</Airport_Name>
    <Latitude>41.9919444444</Latitude>
    <Longitude>-93.6216666667</Longitude>
    <Frequency>132.025</Frequency>
    <Telephone>515-233-2611</Telephone>
  </RESULTS>
  <RESULTS>
    <ICAO>ANB</ICAO>
    <Airport_Name>ANNISTON RGNL</Airport_Name>
    <Latitude>33.5881666667</Latitude>
    <Longitude>-85.8581111111</Longitude>
    <Frequency>119.675</Frequency>
    <Telephone>256-835-3931</Telephone>
  </RESULTS>
  <RESULTS>
    <ICAO>AND</ICAO>
    <Airport_Name>ANDERSON RGNL</Airport_Name>
    <Latitude>34.4977777778</Latitude>
    <Longitude>-82.7097222222</Longitude>
    <Frequency>120.675</Frequency>
    <Telephone>864-226-9522</Telephone>
  </RESULTS>
  <RESULTS>
    <ICAO>ANI</ICAO>
    <Airport_Name>ANIAK</Airport_Name>
    <Latitude>61.5816666667</Latitude>
    <Longitude>-159.5430555556</Longitude>
    <Frequency>124.3</Frequency>
    <Telephone>907-675-4282</Telephone>
  </RESULTS>
  <RESULTS>
    <ICAO>ANJ</ICAO>
    <Airport_Name>SAULT STE MARIE MUNI/SANDERSON FIELD</Airport_Name>
    <Latitude>46.4791666667</Latitude>
    <Longitude>-84.3683333333</Longitude>
    <Frequency>118.375</Frequency>
    <Telephone>906-632-8501</Telephone>
  </RESULTS>
  <RESULTS>
    <ICAO>ANK</ICAO>
    <Airport_Name>HARRIET ALEXANDER FIELD</Airport_Name>
    <Latitude>38.5358583333</Latitude>
    <Longitude>-106.0499611111</Longitude>
    <Frequency>133.85</Frequency>
    <Telephone>719-539-5268</Telephone>
  </RESULTS>
  <RESULTS>
    <ICAO>ANN</ICAO>
    <Airport_Name>ANNETTE ISLAND</Airport_Name>
    <Latitude>55.0425</Latitude>
    <Longitude>-131.5722222222</Longitude>
    <Frequency>135.75</Frequency>
    <Telephone>907-886-3246</Telephone>
  </RESULTS>
  <RESULTS>
    <ICAO>ANQ</ICAO>
    <Airport_Name>TRI-STATE STEUBEN COUNTY</Airport_Name>
    <Latitude>41.6396983333</Latitude>
    <Longitude>-85.0834933333</Longitude>
    <Frequency>118.175</Frequency>
    <Telephone>260-668-5630</Telephone>
  </RESULTS>
  <RESULTS>
    <ICAO>ANV</ICAO>
    <Airport_Name>ANVIK</Airport_Name>
    <Latitude>62.6486111111</Latitude>
    <Longitude>-160.19</Longitude>
    <Frequency>133.55</Frequency>
    <Telephone />
  </RESULTS>
  <RESULTS>
    <ICAO>ANW</ICAO>
    <Airport_Name>AINSWORTH RGNL</Airport_Name>
    <Latitude>42.5791666667</Latitude>
    <Longitude>-99.9930555556</Longitude>
    <Frequency>118.325</Frequency>
    <Telephone>402-387-2329</Telephone>
  </RESULTS>
  <RESULTS>
    <ICAO>AOH</ICAO>
    <Airport_Name>LIMA ALLEN COUNTY</Airport_Name>
    <Latitude>40.7083333333</Latitude>
    <Longitude>-84.0263888889</Longitude>
    <Frequency>108.4</Frequency>
    <Telephone>419-224-6098</Telephone>
  </RESULTS>
  <RESULTS>
    <ICAO>AOO</ICAO>
    <Airport_Name>ALTOONA-BLAIR COUNTY</Airport_Name>
    <Latitude>40.3</Latitude>
    <Longitude>-78.3169444444</Longitude>
    <Frequency>127.125</Frequency>
    <Telephone>814-793-9655</Telephone>
  </RESULTS>
  <RESULTS>
    <ICAO>APN</ICAO>
    <Airport_Name>ALPENA COUNTY RGNL</Airport_Name>
    <Latitude>45.0780555556</Latitude>
    <Longitude>-83.5602777778</Longitude>
    <Frequency>120.675</Frequency>
    <Telephone>989-356-3662</Telephone>
  </RESULTS>
  <RESULTS>
    <ICAO>APY</ICAO>
    <Airport_Name>ZAPATA COUNTY</Airport_Name>
    <Latitude>26.9687861111</Latitude>
    <Longitude>-99.2489083333</Longitude>
    <Frequency>118.225</Frequency>
    <Telephone>956-765-4069</Telephone>
  </RESULTS>
  <RESULTS>
    <ICAO>AQO</ICAO>
    <Airport_Name>LLANO MUNI</Airport_Name>
    <Latitude>30.7872882222</Latitude>
    <Longitude>-98.6607811944</Longitude>
    <Frequency>119.425</Frequency>
    <Telephone>325-247-2189</Telephone>
  </RESULTS>
  <RESULTS>
    <ICAO>AQP</ICAO>
    <Airport_Name>APPLETON MUNI</Airport_Name>
    <Latitude>45.2275</Latitude>
    <Longitude>-96.0044444444</Longitude>
    <Frequency>356</Frequency>
    <Telephone>320-289-1265</Telephone>
  </RESULTS>
  <RESULTS>
    <ICAO>AQR</ICAO>
    <Airport_Name>ATOKA MUNI</Airport_Name>
    <Latitude>34.3983388889</Latitude>
    <Longitude>-96.1480597222</Longitude>
    <Frequency>121.125</Frequency>
    <Telephone>580-889-6924</Telephone>
  </RESULTS>
  <RESULTS>
    <ICAO>AQT</ICAO>
    <Airport_Name>NUIQSUT</Airport_Name>
    <Latitude>70.2098333333</Latitude>
    <Longitude>-151.0064722222</Longitude>
    <Frequency>135.35</Frequency>
    <Telephone>907-480-5577</Telephone>
  </RESULTS>
  <RESULTS>
    <ICAO>AQW</ICAO>
    <Airport_Name>HARRIMAN-AND-WEST</Airport_Name>
    <Latitude>42.6958333333</Latitude>
    <Longitude>-73.1702777778</Longitude>
    <Frequency>134.775</Frequency>
    <Telephone>413-664-6658</Telephone>
  </RESULTS>
  <RESULTS>
    <ICAO>ARA</ICAO>
    <Airport_Name>ACADIANA RGNL</Airport_Name>
    <Latitude>30.0375</Latitude>
    <Longitude>-91.8838888889</Longitude>
    <Frequency>133.325</Frequency>
    <Telephone>337-365-0128</Telephone>
  </RESULTS>
  <RESULTS>
    <ICAO>ARC</ICAO>
    <Airport_Name>ARCTIC VILLAGE</Airport_Name>
    <Latitude>68.1161111111</Latitude>
    <Longitude>-145.5761111111</Longitude>
    <Frequency>135.75</Frequency>
    <Telephone>907-587-5654</Telephone>
  </RESULTS>
  <RESULTS>
    <ICAO>ARG</ICAO>
    <Airport_Name>WALNUT RIDGE RGNL</Airport_Name>
    <Latitude>36.1252777778</Latitude>
    <Longitude>-90.9247222222</Longitude>
    <Frequency>135.925</Frequency>
    <Telephone>870-886-2537</Telephone>
  </RESULTS>
  <RESULTS>
    <ICAO>ARM</ICAO>
    <Airport_Name>WHARTON RGNL</Airport_Name>
    <Latitude>29.2513288889</Latitude>
    <Longitude>-96.1507413889</Longitude>
    <Frequency>118.475</Frequency>
    <Telephone>979-532-2791</Telephone>
  </RESULTS>
  <RESULTS>
    <ICAO>ART</ICAO>
    <Airport_Name>WATERTOWN INTL</Airport_Name>
    <Latitude>43.9888888889</Latitude>
    <Longitude>-76.0263888889</Longitude>
    <Frequency>132.325</Frequency>
    <Telephone>315-639-4002</Telephone>
  </RESULTS>
  <RESULTS>
    <ICAO>ARV</ICAO>
    <Airport_Name>LAKELAND/NOBLE F. LEE MEMORIAL FIELD</Airport_Name>
    <Latitude>45.9279166667</Latitude>
    <Longitude>-89.7309444444</Longitude>
    <Frequency>121.125</Frequency>
    <Telephone>715-356-2417</Telephone>
  </RESULTS>
  <RESULTS>
    <ICAO>ARW</ICAO>
    <Airport_Name>BEAUFORT COUNTY</Airport_Name>
    <Latitude>32.4102777778</Latitude>
    <Longitude>-80.6336111111</Longitude>
    <Frequency>119.675</Frequency>
    <Telephone>843-524-1000</Telephone>
  </RESULTS>
  <RESULTS>
    <ICAO>ASD</ICAO>
    <Airport_Name>SLIDELL</Airport_Name>
    <Latitude>30.345</Latitude>
    <Longitude>-89.8205555556</Longitude>
    <Frequency>132.475</Frequency>
    <Telephone>985-643-7263</Telephone>
  </RESULTS>
  <RESULTS>
    <ICAO>ASG</ICAO>
    <Airport_Name>SPRINGDALE MUNI</Airport_Name>
    <Latitude>36.1763888889</Latitude>
    <Longitude>-94.1191666667</Longitude>
    <Frequency>124.675</Frequency>
    <Telephone>479-750-2967</Telephone>
  </RESULTS>
  <RESULTS>
    <ICAO>ASH</ICAO>
    <Airport_Name>BOIRE FIELD</Airport_Name>
    <Latitude>42.78175</Latitude>
    <Longitude>-71.5147777778</Longitude>
    <Frequency>125.1</Frequency>
    <Telephone>603-578-0473</Telephone>
  </RESULTS>
  <RESULTS>
    <ICAO>ASJ</ICAO>
    <Airport_Name>TRI-COUNTY</Airport_Name>
    <Latitude>36.2975258333</Latitude>
    <Longitude>-77.1708555556</Longitude>
    <Frequency>119.075</Frequency>
    <Telephone>252-345-2967</Telephone>
  </RESULTS>
  <RESULTS>
    <ICAO>ASL</ICAO>
    <Airport_Name>HARRISON COUNTY</Airport_Name>
    <Latitude>32.5205</Latitude>
    <Longitude>-94.3077777778</Longitude>
    <Frequency>118.675</Frequency>
    <Telephone>903-938-2060</Telephone>
  </RESULTS>
  <RESULTS>
    <ICAO>ASN</ICAO>
    <Airport_Name>TALLADEGA MUNI</Airport_Name>
    <Latitude>33.5679444444</Latitude>
    <Longitude>-86.0561361111</Longitude>
    <Frequency>118.425</Frequency>
    <Telephone>256-362-5847</Telephone>
  </RESULTS>
  <RESULTS>
    <ICAO>AST</ICAO>
    <Airport_Name>ASTORIA RGNL</Airport_Name>
    <Latitude>46.1580555556</Latitude>
    <Longitude>-123.8786111111</Longitude>
    <Frequency>135.375</Frequency>
    <Telephone>503-861-1371</Telephone>
  </RESULTS>
  <RESULTS>
    <ICAO>ASW</ICAO>
    <Airport_Name>WARSAW MUNI</Airport_Name>
    <Latitude>41.275</Latitude>
    <Longitude>-85.8413888889</Longitude>
    <Frequency>121.125</Frequency>
    <Telephone>574-269-7035</Telephone>
  </RESULTS>
  <RESULTS>
    <ICAO>ASX</ICAO>
    <Airport_Name>JOHN F KENNEDY MEMORIAL</Airport_Name>
    <Latitude>46.5525</Latitude>
    <Longitude>-90.9158333333</Longitude>
    <Frequency>126.775</Frequency>
    <Telephone>715-682-5541</Telephone>
  </RESULTS>
  <RESULTS>
    <ICAO>ATK</ICAO>
    <Airport_Name>ATQASUK EDWARD BURNELL SR MEMORIAL</Airport_Name>
    <Latitude>70.4671111111</Latitude>
    <Longitude>-157.4356666667</Longitude>
    <Frequency>119.925</Frequency>
    <Telephone>907-633-2012</Telephone>
  </RESULTS>
  <RESULTS>
    <ICAO>ATS</ICAO>
    <Airport_Name>ARTESIA MUNI</Airport_Name>
    <Latitude>32.8525</Latitude>
    <Longitude>-104.4677777778</Longitude>
    <Frequency>126.725</Frequency>
    <Telephone>575-748-2103</Telephone>
  </RESULTS>
  <RESULTS>
    <ICAO>ATY</ICAO>
    <Airport_Name>WATERTOWN RGNL</Airport_Name>
    <Latitude>44.9141666667</Latitude>
    <Longitude>-97.155</Longitude>
    <Frequency>126.625</Frequency>
    <Telephone>605-882-0578</Telephone>
  </RESULTS>
  <RESULTS>
    <ICAO>AUG</ICAO>
    <Airport_Name>AUGUSTA STATE</Airport_Name>
    <Latitude>44.3206497222</Latitude>
    <Longitude>-69.7973180556</Longitude>
    <Frequency>118.325</Frequency>
    <Telephone>207-623-0432</Telephone>
  </RESULTS>
  <RESULTS>
    <ICAO>AUH</ICAO>
    <Airport_Name>AURORA MUNI - AL POTTER FIELD</Airport_Name>
    <Latitude>40.8941666667</Latitude>
    <Longitude>-97.9944444444</Longitude>
    <Frequency>121.225</Frequency>
    <Telephone>402-694-5472</Telephone>
  </RESULTS>
  <RESULTS>
    <ICAO>AUM</ICAO>
    <Airport_Name>AUSTIN MUNI</Airport_Name>
    <Latitude>43.665</Latitude>
    <Longitude>-92.9333333333</Longitude>
    <Frequency>119.025</Frequency>
    <Telephone>507-433-6667</Telephone>
  </RESULTS>
  <RESULTS>
    <ICAO>AUN</ICAO>
    <Airport_Name>AUBURN MUNI</Airport_Name>
    <Latitude>38.9547694444</Latitude>
    <Longitude>-121.0820805556</Longitude>
    <Frequency>119.375</Frequency>
    <Telephone>530-888-8934</Telephone>
  </RESULTS>
  <RESULTS>
    <ICAO>AUO</ICAO>
    <Airport_Name>AUBURN UNIVERSITY RGNL</Airport_Name>
    <Latitude>32.6163888889</Latitude>
    <Longitude>-85.4336111111</Longitude>
    <Frequency>132.575</Frequency>
    <Telephone>334-821-4932</Telephone>
  </RESULTS>
  <RESULTS>
    <ICAO>AUW</ICAO>
    <Airport_Name>WAUSAU DOWNTOWN</Airport_Name>
    <Latitude>44.9262845278</Latitude>
    <Longitude>-89.62700175</Longitude>
    <Frequency>125.925</Frequency>
    <Telephone>715-843-7215</Telephone>
  </RESULTS>
  <RESULTS>
    <ICAO>AVC</ICAO>
    <Airport_Name>MECKLENBURG-BRUNSWICK RGNL</Airport_Name>
    <Latitude>36.6886111111</Latitude>
    <Longitude>-78.0541666667</Longitude>
    <Frequency>127.525</Frequency>
    <Telephone>434-729-2229</Telephone>
  </RESULTS>
  <RESULTS>
    <ICAO>AVK</ICAO>
    <Airport_Name>ALVA RGNL</Airport_Name>
    <Latitude>36.7734739722</Latitude>
    <Longitude>-98.6701682222</Longitude>
    <Frequency>121.125</Frequency>
    <Telephone>580-327-6778</Telephone>
  </RESULTS>
  <RESULTS>
    <ICAO>AVO</ICAO>
    <Airport_Name>AVON PARK EXECUTIVE</Airport_Name>
    <Latitude>27.5914861111</Latitude>
    <Longitude>-81.530475</Longitude>
    <Frequency>118.725</Frequency>
    <Telephone>863-453-4223</Telephone>
  </RESULTS>
  <RESULTS>
    <ICAO>AVQ</ICAO>
    <Airport_Name>MARANA RGNL</Airport_Name>
    <Latitude>32.41095</Latitude>
    <Longitude>-111.2139583333</Longitude>
    <Frequency>118.375</Frequency>
    <Telephone>520-682-4104</Telephone>
  </RESULTS>
  <RESULTS>
    <ICAO>AVX</ICAO>
    <Airport_Name>CATALINA</Airport_Name>
    <Latitude>33.4049444444</Latitude>
    <Longitude>-118.4158611111</Longitude>
    <Frequency>120.675</Frequency>
    <Telephone>310-510-9641</Telephone>
  </RESULTS>
  <RESULTS>
    <ICAO>AWG</ICAO>
    <Airport_Name>WASHINGTON MUNI</Airport_Name>
    <Latitude>41.2761111111</Latitude>
    <Longitude>-91.6733333333</Longitude>
    <Frequency>127.825</Frequency>
    <Telephone>319-653-4149</Telephone>
  </RESULTS>
  <RESULTS>
    <ICAO>AWI</ICAO>
    <Airport_Name>WAINWRIGHT</Airport_Name>
    <Latitude>70.638</Latitude>
    <Longitude>-159.99475</Longitude>
    <Frequency>132.25</Frequency>
    <Telephone>907-763-8881</Telephone>
  </RESULTS>
  <RESULTS>
    <ICAO>AWM</ICAO>
    <Airport_Name>WEST MEMPHIS MUNI</Airport_Name>
    <Latitude>35.1350586111</Latitude>
    <Longitude>-90.2344463889</Longitude>
    <Frequency>118.175</Frequency>
    <Telephone>870-733-9987</Telephone>
  </RESULTS>
  <RESULTS>
    <ICAO>AWO</ICAO>
    <Airport_Name>ARLINGTON MUNI</Airport_Name>
    <Latitude>48.1608333333</Latitude>
    <Longitude>-122.1588888889</Longitude>
    <Frequency>135.625</Frequency>
    <Telephone>360-435-8045</Telephone>
  </RESULTS>
  <RESULTS>
    <ICAO>AXA</ICAO>
    <Airport_Name>ALGONA MUNI</Airport_Name>
    <Latitude>43.0777777778</Latitude>
    <Longitude>-94.2719444444</Longitude>
    <Frequency>118.475</Frequency>
    <Telephone>515-295-9634</Telephone>
  </RESULTS>
  <RESULTS>
    <ICAO>AXH</ICAO>
    <Airport_Name>HOUSTON-SOUTHWEST</Airport_Name>
    <Latitude>29.2835277778</Latitude>
    <Longitude>-95.4264166667</Longitude>
    <Frequency>123.625</Frequency>
    <Telephone>281-431-6572</Telephone>
  </RESULTS>
  <RESULTS>
    <ICAO>AXN</ICAO>
    <Airport_Name>CHANDLER FIELD</Airport_Name>
    <Latitude>45.8663888889</Latitude>
    <Longitude>-95.3947222222</Longitude>
    <Frequency>118.375</Frequency>
    <Telephone>320-763-7174</Telephone>
  </RESULTS>
  <RESULTS>
    <ICAO>AXQ</ICAO>
    <Airport_Name>CLARION COUNTY</Airport_Name>
    <Latitude>41.2258122222</Latitude>
    <Longitude>-79.4409897222</Longitude>
    <Frequency>118.275</Frequency>
    <Telephone>814-227-2899</Telephone>
  </RESULTS>
  <RESULTS>
    <ICAO>AXS</ICAO>
    <Airport_Name>ALTUS/QUARTZ MOUNTAIN RGNL</Airport_Name>
    <Latitude>34.6963888889</Latitude>
    <Longitude>-99.3402777778</Longitude>
    <Frequency>118.825</Frequency>
    <Telephone>580-477-1745</Telephone>
  </RESULTS>
  <RESULTS>
    <ICAO>AXV</ICAO>
    <Airport_Name>NEIL ARMSTRONG</Airport_Name>
    <Latitude>40.4933333333</Latitude>
    <Longitude>-84.2988888889</Longitude>
    <Frequency>128.325</Frequency>
    <Telephone>419-753-2821</Telephone>
  </RESULTS>
  <RESULTS>
    <ICAO>AXX</ICAO>
    <Airport_Name>ANGEL FIRE</Airport_Name>
    <Latitude>36.4263888889</Latitude>
    <Longitude>-105.2908333333</Longitude>
    <Frequency>118.025</Frequency>
    <Telephone>575-377-0526</Telephone>
  </RESULTS>
  <RESULTS>
    <ICAO>AYS</ICAO>
    <Airport_Name>WAYCROSS-WARE COUNTY</Airport_Name>
    <Latitude>31.2491666667</Latitude>
    <Longitude>-82.3952777778</Longitude>
    <Frequency>118.575</Frequency>
    <Telephone>912-287-4466</Telephone>
  </RESULTS>
  <RESULTS>
    <ICAO>AZC</ICAO>
    <Airport_Name>COLORADO CITY MUNI</Airport_Name>
    <Latitude>36.9591666667</Latitude>
    <Longitude>-113.0088888889</Longitude>
    <Frequency>118.375</Frequency>
    <Telephone>928-875-8045</Telephone>
  </RESULTS>
  <RESULTS>
    <ICAO>AZE</ICAO>
    <Airport_Name>HAZLEHURST</Airport_Name>
    <Latitude>31.8792527778</Latitude>
    <Longitude>-82.6454413889</Longitude>
    <Frequency>119.125</Frequency>
    <Telephone>(912) 375-0650</Telephone>
  </RESULTS>
  <RESULTS>
    <ICAO>BAC</ICAO>
    <Airport_Name>BARNES COUNTY MUNI</Airport_Name>
    <Latitude>46.9411850833</Latitude>
    <Longitude>-98.0180181667</Longitude>
    <Frequency>118.725</Frequency>
    <Telephone>701-845-9117</Telephone>
  </RESULTS>
  <RESULTS>
    <ICAO>BAK</ICAO>
    <Airport_Name>COLUMBUS MUNI</Airport_Name>
    <Latitude>39.2619166667</Latitude>
    <Longitude>-85.8963333333</Longitude>
    <Frequency>119.75</Frequency>
    <Telephone>812-376-7584</Telephone>
  </RESULTS>
  <RESULTS>
    <ICAO>BAM</ICAO>
    <Airport_Name>BATTLE MOUNTAIN</Airport_Name>
    <Latitude>40.5990458333</Latitude>
    <Longitude>-116.8743358333</Longitude>
    <Frequency>119.45</Frequency>
    <Telephone>775-635-8419</Telephone>
  </RESULTS>
  <RESULTS>
    <ICAO>BAX</ICAO>
    <Airport_Name>HURON COUNTY MEMORIAL</Airport_Name>
    <Latitude>43.7808333333</Latitude>
    <Longitude>-82.9855555556</Longitude>
    <Frequency>118.6</Frequency>
    <Telephone>989-269-4137</Telephone>
  </RESULTS>
  <RESULTS>
    <ICAO>BAZ</ICAO>
    <Airport_Name>NEW BRAUNFELS MUNI</Airport_Name>
    <Latitude>29.7030555556</Latitude>
    <Longitude>-98.0411111111</Longitude>
    <Frequency>119.325</Frequency>
    <Telephone>830-629-7979</Telephone>
  </RESULTS>
  <RESULTS>
    <ICAO>BBB</ICAO>
    <Airport_Name>BENSON MUNI</Airport_Name>
    <Latitude>45.3319444444</Latitude>
    <Longitude>-95.6505555556</Longitude>
    <Frequency>239</Frequency>
    <Telephone>320-843-3242</Telephone>
  </RESULTS>
  <RESULTS>
    <ICAO>BBD</ICAO>
    <Airport_Name>CURTIS FIELD</Airport_Name>
    <Latitude>31.1763888889</Latitude>
    <Longitude>-99.3227777778</Longitude>
    <Frequency>118.375</Frequency>
    <Telephone>325-597-9139</Telephone>
  </RESULTS>
  <RESULTS>
    <ICAO>BBG</ICAO>
    <Airport_Name>BRANSON</Airport_Name>
    <Latitude>36.5320819444</Latitude>
    <Longitude>-93.2005444444</Longitude>
    <Frequency>124.625</Frequency>
    <Telephone>417-334-0218</Telephone>
  </RESULTS>
  <RESULTS>
    <ICAO>BBP</ICAO>
    <Airport_Name>MARLBORO COUNTY JETPORT - H.E. AVENT FIELD</Airport_Name>
    <Latitude>34.6227916667</Latitude>
    <Longitude>-79.7353916667</Longitude>
    <Frequency>123.825</Frequency>
    <Telephone>843-479-5817</Telephone>
  </RESULTS>
  <RESULTS>
    <ICAO>BBW</ICAO>
    <Airport_Name>BROKEN BOW MUNI/KEITH GLAZE FLD</Airport_Name>
    <Latitude>41.4329166667</Latitude>
    <Longitude>-99.6371111111</Longitude>
    <Frequency>120.0</Frequency>
    <Telephone>308-872-5354</Telephone>
  </RESULTS>
  <RESULTS>
    <ICAO>BCB</ICAO>
    <Airport_Name>VIRGINIA TECH/MONTGOMERY EXECUTIVE</Airport_Name>
    <Latitude>37.2077777778</Latitude>
    <Longitude>-80.4083333333</Longitude>
    <Frequency>133.325</Frequency>
    <Telephone>540-231-4837</Telephone>
  </RESULTS>
  <RESULTS>
    <ICAO>BCE</ICAO>
    <Airport_Name>BRYCE CANYON</Airport_Name>
    <Latitude>37.7064444444</Latitude>
    <Longitude>-112.1458055556</Longitude>
    <Frequency>135.475</Frequency>
    <Telephone>435-834-5270</Telephone>
  </RESULTS>
  <RESULTS>
    <ICAO>BCK</ICAO>
    <Airport_Name>BLACK RIVER FALLS AREA</Airport_Name>
    <Latitude>44.2507361111</Latitude>
    <Longitude>-90.8552777778</Longitude>
    <Frequency>119.125</Frequency>
    <Telephone>715-284-0007</Telephone>
  </RESULTS>
  <RESULTS>
    <ICAO>BCT</ICAO>
    <Airport_Name>BOCA RATON</Airport_Name>
    <Latitude>26.3784861111</Latitude>
    <Longitude>-80.1076972222</Longitude>
    <Frequency>121.125</Frequency>
    <Telephone>561-391-2696</Telephone>
  </RESULTS>
  <RESULTS>
    <ICAO>BCV</ICAO>
    <Airport_Name>BIRCHWOOD</Airport_Name>
    <Latitude>61.4161111111</Latitude>
    <Longitude>-149.5088888889</Longitude>
    <Frequency>135.55</Frequency>
    <Telephone>907-688-0826</Telephone>
  </RESULTS>
  <RESULTS>
    <ICAO>BDE</ICAO>
    <Airport_Name>BAUDETTE INTL</Airport_Name>
    <Latitude>48.7275</Latitude>
    <Longitude>-94.6102777778</Longitude>
    <Frequency>126.775</Frequency>
    <Telephone>218-634-3080</Telephone>
  </RESULTS>
  <RESULTS>
    <ICAO>BDG</ICAO>
    <Airport_Name>BLANDING MUNI</Airport_Name>
    <Latitude>37.5833333333</Latitude>
    <Longitude>-109.4832777778</Longitude>
    <Frequency>127.75</Frequency>
    <Telephone>435-678-2636</Telephone>
  </RESULTS>
  <RESULTS>
    <ICAO>BDH</ICAO>
    <Airport_Name>WILLMAR MUNI-JOHN L RICE FIELD</Airport_Name>
    <Latitude>45.111175</Latitude>
    <Longitude>-95.1256555556</Longitude>
    <Frequency>113.7</Frequency>
    <Telephone>320-235-8287</Telephone>
  </RESULTS>
  <RESULTS>
    <ICAO>BDN</ICAO>
    <Airport_Name>BEND MUNI</Airport_Name>
    <Latitude>44.0936638889</Latitude>
    <Longitude>-121.1982944444</Longitude>
    <Frequency>134.425</Frequency>
    <Telephone>541-382-1477</Telephone>
  </RESULTS>
  <RESULTS>
    <ICAO>BDU</ICAO>
    <Airport_Name>BOULDER MUNI</Airport_Name>
    <Latitude>40.0377277778</Latitude>
    <Longitude>-105.2273638889</Longitude>
    <Frequency>118.825</Frequency>
    <Telephone>303-541-9540</Telephone>
  </RESULTS>
  <RESULTS>
    <ICAO>BEA</ICAO>
    <Airport_Name>BEEVILLE MUNI</Airport_Name>
    <Latitude>28.3691878333</Latitude>
    <Longitude>-97.7953498333</Longitude>
    <Frequency>118.675</Frequency>
    <Telephone>361-362-7627</Telephone>
  </RESULTS>
  <RESULTS>
    <ICAO>BEH</ICAO>
    <Airport_Name>SOUTHWEST MICHIGAN RGNL</Airport_Name>
    <Latitude>42.1286111111</Latitude>
    <Longitude>-86.4286111111</Longitude>
    <Frequency>121.55</Frequency>
    <Telephone>269-925-9008</Telephone>
  </RESULTS>
  <RESULTS>
    <ICAO>BFD</ICAO>
    <Airport_Name>BRADFORD RGNL</Airport_Name>
    <Latitude>41.8030555556</Latitude>
    <Longitude>-78.64</Longitude>
    <Frequency>133.825</Frequency>
    <Telephone>814-368-2581</Telephone>
  </RESULTS>
  <RESULTS>
    <ICAO>BFF</ICAO>
    <Airport_Name>WESTERN NEB. RGNL/WILLIAM B. HEILIG FIELD</Airport_Name>
    <Latitude>41.8738888889</Latitude>
    <Longitude>-103.5955555556</Longitude>
    <Frequency>121.025</Frequency>
    <Telephone>308-632-8949</Telephone>
  </RESULTS>
  <RESULTS>
    <ICAO>BFR</ICAO>
    <Airport_Name>VIRGIL I GRISSOM MUNI</Airport_Name>
    <Latitude>38.8400277778</Latitude>
    <Longitude>-86.4453611111</Longitude>
    <Frequency>119.125</Frequency>
    <Telephone>812-275-8306</Telephone>
  </RESULTS>
  <RESULTS>
    <ICAO>BFW</ICAO>
    <Airport_Name>SILVER BAY MUNI</Airport_Name>
    <Latitude>47.2491666667</Latitude>
    <Longitude>-91.4155555556</Longitude>
    <Frequency>350</Frequency>
    <Telephone>218-226-3537</Telephone>
  </RESULTS>
  <RESULTS>
    <ICAO>BGD</ICAO>
    <Airport_Name>HUTCHINSON COUNTY</Airport_Name>
    <Latitude>35.7</Latitude>
    <Longitude>-101.3941666667</Longitude>
    <Frequency>118.325</Frequency>
    <Telephone>806-274-7318</Telephone>
  </RESULTS>
  <RESULTS>
    <ICAO>BGE</ICAO>
    <Airport_Name>DECATUR COUNTY INDUSTRIAL AIR PARK</Airport_Name>
    <Latitude>30.9715980833</Latitude>
    <Longitude>-84.6369278056</Longitude>
    <Frequency>121.125</Frequency>
    <Telephone>229-248-2104</Telephone>
  </RESULTS>
  <RESULTS>
    <ICAO>BGF</ICAO>
    <Airport_Name>WINCHESTER MUNI</Airport_Name>
    <Latitude>35.1775</Latitude>
    <Longitude>-86.0661111111</Longitude>
    <Frequency>121.675</Frequency>
    <Telephone>931-967-8445</Telephone>
  </RESULTS>
  <RESULTS>
    <ICAO>BHB</ICAO>
    <Airport_Name>HANCOCK COUNTY-BAR HARBOR</Airport_Name>
    <Latitude>44.45</Latitude>
    <Longitude>-68.3616666667</Longitude>
    <Frequency>118.025</Frequency>
    <Telephone>207-667-7364</Telephone>
  </RESULTS>
  <RESULTS>
    <ICAO>BHC</ICAO>
    <Airport_Name>BAXLEY MUNI</Airport_Name>
    <Latitude>31.7138888889</Latitude>
    <Longitude>-82.3938888889</Longitude>
    <Frequency>376</Frequency>
    <Telephone />
  </RESULTS>
  <RESULTS>
    <ICAO>BHK</ICAO>
    <Airport_Name>BAKER MUNI</Airport_Name>
    <Latitude>46.3475</Latitude>
    <Longitude>-104.2594444444</Longitude>
    <Frequency>135.475</Frequency>
    <Telephone>406-778-3312</Telephone>
  </RESULTS>
  <RESULTS>
    <ICAO>BID</ICAO>
    <Airport_Name>BLOCK ISLAND STATE</Airport_Name>
    <Latitude>41.1680555556</Latitude>
    <Longitude>-71.5777777778</Longitude>
    <Frequency>134.775</Frequency>
    <Telephone>401-466-5495</Telephone>
  </RESULTS>
  <RESULTS>
    <ICAO>BIE</ICAO>
    <Airport_Name>BEATRICE MUNI</Airport_Name>
    <Latitude>40.3013888889</Latitude>
    <Longitude>-96.7541666667</Longitude>
    <Frequency>125.325</Frequency>
    <Telephone>402-228-3229</Telephone>
  </RESULTS>
  <RESULTS>
    <ICAO>BIG</ICAO>
    <Airport_Name>ALLEN AAF</Airport_Name>
    <Latitude>63.9947222222</Latitude>
    <Longitude>-145.7202777778</Longitude>
    <Frequency>135.65</Frequency>
    <Telephone>907-869-3480</Telephone>
  </RESULTS>
  <RESULTS>
    <ICAO>BIH</ICAO>
    <Airport_Name>EASTERN SIERRA RGNL</Airport_Name>
    <Latitude>37.3730555556</Latitude>
    <Longitude>-118.3636111111</Longitude>
    <Frequency>119.025</Frequency>
    <Telephone>760-872-2658</Telephone>
  </RESULTS>
  <RESULTS>
    <ICAO>BIJ</ICAO>
    <Airport_Name>EARLY COUNTY</Airport_Name>
    <Latitude>31.4015611111</Latitude>
    <Longitude>-84.8938722222</Longitude>
    <Frequency>118.475</Frequency>
    <Telephone>229-723-5511</Telephone>
  </RESULTS>
  <RESULTS>
    <ICAO>BIV</ICAO>
    <Airport_Name>WEST MICHIGAN RGNL</Airport_Name>
    <Latitude>42.7430555556</Latitude>
    <Longitude>-86.105</Longitude>
    <Frequency>119.025</Frequency>
    <Telephone>616-394-0190</Telephone>
  </RESULTS>
  <RESULTS>
    <ICAO>BJI</ICAO>
    <Airport_Name>BEMIDJI RGNL</Airport_Name>
    <Latitude>47.5094444444</Latitude>
    <Longitude>-94.9336111111</Longitude>
    <Frequency>110.0</Frequency>
    <Telephone>218-755-2575</Telephone>
  </RESULTS>
  <RESULTS>
    <ICAO>BJJ</ICAO>
    <Airport_Name>WAYNE COUNTY</Airport_Name>
    <Latitude>40.8747222222</Latitude>
    <Longitude>-81.8883333333</Longitude>
    <Frequency>118.075</Frequency>
    <Telephone>330-669-9105</Telephone>
  </RESULTS>
  <RESULTS>
    <ICAO>BKD</ICAO>
    <Airport_Name>STEPHENS COUNTY</Airport_Name>
    <Latitude>32.7205555556</Latitude>
    <Longitude>-98.8930555556</Longitude>
    <Frequency>120.175</Frequency>
    <Telephone>254-559-5525</Telephone>
  </RESULTS>
  <RESULTS>
    <ICAO>BKE</ICAO>
    <Airport_Name>BAKER CITY MUNI</Airport_Name>
    <Latitude>44.8373499722</Latitude>
    <Longitude>-117.8091441667</Longitude>
    <Frequency>134.275</Frequency>
    <Telephone>541-523-5412</Telephone>
  </RESULTS>
  <RESULTS>
    <ICAO>BKN</ICAO>
    <Airport_Name>BLACKWELL-TONKAWA MUNI</Airport_Name>
    <Latitude>36.7430555556</Latitude>
    <Longitude>-97.3477777778</Longitude>
    <Frequency>120.575</Frequency>
    <Telephone>580-363-0688</Telephone>
  </RESULTS>
  <RESULTS>
    <ICAO>BKS</ICAO>
    <Airport_Name>BROOKS COUNTY</Airport_Name>
    <Latitude>27.2063597222</Latitude>
    <Longitude>-98.1216363889</Longitude>
    <Frequency>118.125</Frequency>
    <Telephone>361-325-4055</Telephone>
  </RESULTS>
  <RESULTS>
    <ICAO>BKV</ICAO>
    <Airport_Name>HERNANDO COUNTY</Airport_Name>
    <Latitude>28.4736111111</Latitude>
    <Longitude>-82.4555555556</Longitude>
    <Frequency>134.725</Frequency>
    <Telephone>352-799-5881</Telephone>
  </RESULTS>
  <RESULTS>
    <ICAO>BKW</ICAO>
    <Airport_Name>RALEIGH COUNTY MEMORIAL</Airport_Name>
    <Latitude>37.7872222222</Latitude>
    <Longitude>-81.1241666667</Longitude>
    <Frequency>121.55</Frequency>
    <Telephone>304-253-5214</Telephone>
  </RESULTS>
  <RESULTS>
    <ICAO>BKX</ICAO>
    <Airport_Name>BROOKINGS RGNL</Airport_Name>
    <Latitude>44.3047222222</Latitude>
    <Longitude>-96.8169444444</Longitude>
    <Frequency>108.8</Frequency>
    <Telephone>605-692-1809</Telephone>
  </RESULTS>
  <RESULTS>
    <ICAO>BLF</ICAO>
    <Airport_Name>MERCER COUNTY</Airport_Name>
    <Latitude>37.2922222222</Latitude>
    <Longitude>-81.2091666667</Longitude>
    <Frequency>132.725</Frequency>
    <Telephone>304-327-5766</Telephone>
  </RESULTS>
  <RESULTS>
    <ICAO>BLH</ICAO>
    <Airport_Name>BLYTHE</Airport_Name>
    <Latitude>33.6191627778</Latitude>
    <Longitude>-114.7168763889</Longitude>
    <Frequency>120.175</Frequency>
    <Telephone>760-922-3000</Telephone>
  </RESULTS>
  <RESULTS>
    <ICAO>BLM</ICAO>
    <Airport_Name>MONMOUTH EXECUTIVE</Airport_Name>
    <Latitude>40.1869444444</Latitude>
    <Longitude>-74.125</Longitude>
    <Frequency>121.625</Frequency>
    <Telephone>732-938-3330</Telephone>
  </RESULTS>
  <RESULTS>
    <ICAO>BLU</ICAO>
    <Airport_Name>BLUE CANYON - NYACK</Airport_Name>
    <Latitude>39.275</Latitude>
    <Longitude>-120.7094444444</Longitude>
    <Frequency>120.075</Frequency>
    <Telephone>530-389-2091</Telephone>
  </RESULTS>
  <RESULTS>
    <ICAO>BMC</ICAO>
    <Airport_Name>BRIGHAM CITY</Airport_Name>
    <Latitude>41.5525</Latitude>
    <Longitude>-112.0622222222</Longitude>
    <Frequency>135.075</Frequency>
    <Telephone>435-723-3852</Telephone>
  </RESULTS>
  <RESULTS>
    <ICAO>BMG</ICAO>
    <Airport_Name>MONROE COUNTY</Airport_Name>
    <Latitude>39.1461111111</Latitude>
    <Longitude>-86.6166666667</Longitude>
    <Frequency>110.2</Frequency>
    <Telephone>812-825-8046</Telephone>
  </RESULTS>
  <RESULTS>
    <ICAO>BMI</ICAO>
    <Airport_Name>CENTRAL IL RGNL ARPT AT BLOOMINGTON-NORMAL</Airport_Name>
    <Latitude>40.4771111111</Latitude>
    <Longitude>-88.9159166667</Longitude>
    <Frequency>135.35</Frequency>
    <Telephone>309-661-9478</Telephone>
  </RESULTS>
  <RESULTS>
    <ICAO>BML</ICAO>
    <Airport_Name>BERLIN RGNL</Airport_Name>
    <Latitude>44.5752777778</Latitude>
    <Longitude>-71.1758333333</Longitude>
    <Frequency>135.175</Frequency>
    <Telephone>603-449-3328</Telephone>
  </RESULTS>
  <RESULTS>
    <ICAO>BMQ</ICAO>
    <Airport_Name>BURNET MUNI KATE CRADDOCK FIELD</Airport_Name>
    <Latitude>30.7388888889</Latitude>
    <Longitude>-98.2386111111</Longitude>
    <Frequency>119.925</Frequency>
    <Telephone>512-756-7277</Telephone>
  </RESULTS>
  <RESULTS>
    <ICAO>BMT</ICAO>
    <Airport_Name>BEAUMONT MUNI</Airport_Name>
    <Latitude>30.0684958333</Latitude>
    <Longitude>-94.2154313889</Longitude>
    <Frequency>118.425</Frequency>
    <Telephone>409-866-2832</Telephone>
  </RESULTS>
  <RESULTS>
    <ICAO>BNG</ICAO>
    <Airport_Name>BANNING MUNI</Airport_Name>
    <Latitude>33.9241388889</Latitude>
    <Longitude>-116.854</Longitude>
    <Frequency>134.625</Frequency>
    <Telephone>951-922-4674</Telephone>
  </RESULTS>
  <RESULTS>
    <ICAO>BNL</ICAO>
    <Airport_Name>BARNWELL RGNL</Airport_Name>
    <Latitude>33.2578055556</Latitude>
    <Longitude>-81.3883388889</Longitude>
    <Frequency>119.775</Frequency>
    <Telephone>803-259-4536</Telephone>
  </RESULTS>
  <RESULTS>
    <ICAO>BNO</ICAO>
    <Airport_Name>BURNS MUNI</Airport_Name>
    <Latitude>43.5922222222</Latitude>
    <Longitude>-118.955</Longitude>
    <Frequency>135.575</Frequency>
    <Telephone>541-573-1382</Telephone>
  </RESULTS>
  <RESULTS>
    <ICAO>BNW</ICAO>
    <Airport_Name>BOONE MUNI</Airport_Name>
    <Latitude>42.0494444444</Latitude>
    <Longitude>-93.8475</Longitude>
    <Frequency>120.925</Frequency>
    <Telephone>515-432-9042</Telephone>
  </RESULTS>
  <RESULTS>
    <ICAO>BOK</ICAO>
    <Airport_Name>BROOKINGS</Airport_Name>
    <Latitude>42.0761111111</Latitude>
    <Longitude>-124.29</Longitude>
    <Frequency>132.025</Frequency>
    <Telephone>541-412-8682</Telephone>
  </RESULTS>
  <RESULTS>
    <ICAO>BOW</ICAO>
    <Airport_Name>BARTOW MUNI</Airport_Name>
    <Latitude>27.9471555556</Latitude>
    <Longitude>-81.7811083333</Longitude>
    <Frequency>123.775</Frequency>
    <Telephone>863-533-9004</Telephone>
  </RESULTS>
  <RESULTS>
    <ICAO>BPG</ICAO>
    <Airport_Name>BIG SPRING MC MAHON-WRINKLE</Airport_Name>
    <Latitude>32.2097288889</Latitude>
    <Longitude>-101.5247438889</Longitude>
    <Frequency>118.025</Frequency>
    <Telephone>432-263-3842</Telephone>
  </RESULTS>
  <RESULTS>
    <ICAO>BPI</ICAO>
    <Airport_Name>MILEY MEMORIAL FIELD</Airport_Name>
    <Latitude>42.585</Latitude>
    <Longitude>-110.1111111111</Longitude>
    <Frequency>135.225</Frequency>
    <Telephone>307-276-9917</Telephone>
  </RESULTS>
  <RESULTS>
    <ICAO>BPK</ICAO>
    <Airport_Name>BAXTER COUNTY</Airport_Name>
    <Latitude>36.3708333333</Latitude>
    <Longitude>-92.4652777778</Longitude>
    <Frequency>133.975</Frequency>
    <Telephone>870-481-5946</Telephone>
  </RESULTS>
  <RESULTS>
    <ICAO>BPP</ICAO>
    <Airport_Name>BOWMAN MUNI</Airport_Name>
    <Latitude>46.1869444444</Latitude>
    <Longitude>-103.4280555556</Longitude>
    <Frequency>374</Frequency>
    <Telephone>701-523-3412</Telephone>
  </RESULTS>
  <RESULTS>
    <ICAO>BQK</ICAO>
    <Airport_Name>BRUNSWICK GOLDEN ISLES</Airport_Name>
    <Latitude>31.2591666667</Latitude>
    <Longitude>-81.4663888889</Longitude>
    <Frequency>124.175</Frequency>
    <Telephone>912-261-0531</Telephone>
  </RESULTS>
  <RESULTS>
    <ICAO>BQN</ICAO>
    <Airport_Name>RAFAEL HERNANDEZ</Airport_Name>
    <Latitude>18.4948388889</Latitude>
    <Longitude>-67.1294416667</Longitude>
    <Frequency>118.325</Frequency>
    <Telephone>787-890-3570</Telephone>
  </RESULTS>
  <RESULTS>
    <ICAO>BQP</ICAO>
    <Airport_Name>MOREHOUSE MEMORIAL</Airport_Name>
    <Latitude>32.7550555556</Latitude>
    <Longitude>-91.8819444444</Longitude>
    <Frequency>118.375</Frequency>
    <Telephone>318-281-1443</Telephone>
  </RESULTS>
  <RESULTS>
    <ICAO>BRD</ICAO>
    <Airport_Name>BRAINERD LAKES RGNL</Airport_Name>
    <Latitude>46.3977777778</Latitude>
    <Longitude>-94.1372222222</Longitude>
    <Frequency>126.775</Frequency>
    <Telephone>218-828-3314</Telephone>
  </RESULTS>
  <RESULTS>
    <ICAO>BRL</ICAO>
    <Airport_Name>SOUTHEAST IOWA RGNL</Airport_Name>
    <Latitude>40.7833333333</Latitude>
    <Longitude>-91.1255555556</Longitude>
    <Frequency>118.025</Frequency>
    <Telephone>319-752-6246</Telephone>
  </RESULTS>
  <RESULTS>
    <ICAO>BRW</ICAO>
    <Airport_Name>WILEY POST-WILL ROGERS MEMORIAL</Airport_Name>
    <Latitude>71.2848888889</Latitude>
    <Longitude>-156.7685833333</Longitude>
    <Frequency>132.150</Frequency>
    <Telephone>907-852-3112</Telephone>
  </RESULTS>
  <RESULTS>
    <ICAO>BRY</ICAO>
    <Airport_Name>SAMUELS FIELD</Airport_Name>
    <Latitude>37.8143333333</Latitude>
    <Longitude>-85.4996388889</Longitude>
    <Frequency>119.925</Frequency>
    <Telephone>502-348-1867</Telephone>
  </RESULTS>
  <RESULTS>
    <ICAO>BST</ICAO>
    <Airport_Name>BELFAST MUNI</Airport_Name>
    <Latitude>44.4088972222</Latitude>
    <Longitude>-69.0124972222</Longitude>
    <Frequency>122.8</Frequency>
    <Telephone />
  </RESULTS>
  <RESULTS>
    <ICAO>BTA</ICAO>
    <Airport_Name>BLAIR MUNI</Airport_Name>
    <Latitude>41.4148055556</Latitude>
    <Longitude>-96.1089722222</Longitude>
    <Frequency>120.225</Frequency>
    <Telephone>402-426-0448</Telephone>
  </RESULTS>
  <RESULTS>
    <ICAO>BTI</ICAO>
    <Airport_Name>BARTER ISLAND LRRS</Airport_Name>
    <Latitude>70.1338888889</Latitude>
    <Longitude>-143.5819444444</Longitude>
    <Frequency>120.000</Frequency>
    <Telephone>907-640-2124</Telephone>
  </RESULTS>
  <RESULTS>
    <ICAO>BTM</ICAO>
    <Airport_Name>BERT MOONEY</Airport_Name>
    <Latitude>45.9548055556</Latitude>
    <Longitude>-112.4974722222</Longitude>
    <Frequency>135.175</Frequency>
    <Telephone>406-494-1870</Telephone>
  </RESULTS>
  <RESULTS>
    <ICAO>BTP</ICAO>
    <Airport_Name>BUTLER COUNTY/K W SCHOLTER FIELD</Airport_Name>
    <Latitude>40.7769444444</Latitude>
    <Longitude>-79.9497222222</Longitude>
    <Frequency>121.450</Frequency>
    <Telephone>724-586-6434</Telephone>
  </RESULTS>
  <RESULTS>
    <ICAO>BTT</ICAO>
    <Airport_Name>BETTLES</Airport_Name>
    <Latitude>66.9139444444</Latitude>
    <Longitude>-151.5290555556</Longitude>
    <Frequency>135.45</Frequency>
    <Telephone>907-692-5900</Telephone>
  </RESULTS>
  <RESULTS>
    <ICAO>BUU</ICAO>
    <Airport_Name>BURLINGTON MUNI</Airport_Name>
    <Latitude>42.6907171111</Latitude>
    <Longitude>-88.3046825278</Longitude>
    <Frequency>114.50</Frequency>
    <Telephone>262-757-0907</Telephone>
  </RESULTS>
  <RESULTS>
    <ICAO>BUY</ICAO>
    <Airport_Name>BURLINGTON-ALAMANCE RGNL</Airport_Name>
    <Latitude>36.0485433333</Latitude>
    <Longitude>-79.4748891667</Longitude>
    <Frequency>135.325</Frequency>
    <Telephone>336-570-9813</Telephone>
  </RESULTS>
  <RESULTS>
    <ICAO>BVI</ICAO>
    <Airport_Name>BEAVER COUNTY</Airport_Name>
    <Latitude>40.7724722222</Latitude>
    <Longitude>-80.3914444444</Longitude>
    <Frequency>118.35</Frequency>
    <Telephone>724-843-1024</Telephone>
  </RESULTS>
  <RESULTS>
    <ICAO>BVK</ICAO>
    <Airport_Name>BUCKLAND</Airport_Name>
    <Latitude>65.9805555556</Latitude>
    <Longitude>-161.1441666667</Longitude>
    <Frequency>135.15</Frequency>
    <Telephone>907-494-2180</Telephone>
  </RESULTS>
  <RESULTS>
    <ICAO>BVN</ICAO>
    <Airport_Name>ALBION MUNI</Airport_Name>
    <Latitude>41.7285769444</Latitude>
    <Longitude>-98.0557597222</Longitude>
    <Frequency>118.575</Frequency>
    <Telephone>402-395-2052</Telephone>
  </RESULTS>
  <RESULTS>
    <ICAO>BVO</ICAO>
    <Airport_Name>BARTLESVILLE MUNI</Airport_Name>
    <Latitude>36.7642486111</Latitude>
    <Longitude>-96.0112013889</Longitude>
    <Frequency>132.675</Frequency>
    <Telephone>918-336-2070</Telephone>
  </RESULTS>
  <RESULTS>
    <ICAO>BVS</ICAO>
    <Airport_Name>SKAGIT RGNL</Airport_Name>
    <Latitude>48.4708888889</Latitude>
    <Longitude>-122.4208611111</Longitude>
    <Frequency>121.125</Frequency>
    <Telephone>360-757-7767</Telephone>
  </RESULTS>
  <RESULTS>
    <ICAO>BVU</ICAO>
    <Airport_Name>BOULDER CITY MUNI</Airport_Name>
    <Latitude>35.9474802778</Latitude>
    <Longitude>-114.8610966667</Longitude>
    <Frequency>118.475</Frequency>
    <Telephone>702-293-1532</Telephone>
  </RESULTS>
  <RESULTS>
    <ICAO>BVX</ICAO>
    <Airport_Name>BATESVILLE RGNL</Airport_Name>
    <Latitude>35.7261111111</Latitude>
    <Longitude>-91.6472222222</Longitude>
    <Frequency>126.375</Frequency>
    <Telephone>870-251-1369</Telephone>
  </RESULTS>
  <RESULTS>
    <ICAO>BWD</ICAO>
    <Airport_Name>BROWNWOOD RGNL</Airport_Name>
    <Latitude>31.7936111111</Latitude>
    <Longitude>-98.9563888889</Longitude>
    <Frequency>118.325</Frequency>
    <Telephone>888-297-9399</Telephone>
  </RESULTS>
  <RESULTS>
    <ICAO>BWG</ICAO>
    <Airport_Name>BOWLING GREEN-WARREN COUNTY RGNL</Airport_Name>
    <Latitude>36.9644444444</Latitude>
    <Longitude>-86.4197222222</Longitude>
    <Frequency>127.825</Frequency>
    <Telephone>270-843-8136</Telephone>
  </RESULTS>
  <RESULTS>
    <ICAO>BWP</ICAO>
    <Airport_Name>HARRY STERN</Airport_Name>
    <Latitude>46.2463888889</Latitude>
    <Longitude>-96.6055555556</Longitude>
    <Frequency>127.875</Frequency>
    <Telephone>701-642-9800</Telephone>
  </RESULTS>
  <RESULTS>
    <ICAO>BXA</ICAO>
    <Airport_Name>GEORGE R CARR MEMORIAL AIR FLD</Airport_Name>
    <Latitude>30.8072222222</Latitude>
    <Longitude>-89.8555555556</Longitude>
    <Frequency>118.025</Frequency>
    <Telephone>985-732-6224</Telephone>
  </RESULTS>
  <RESULTS>
    <ICAO>BXK</ICAO>
    <Airport_Name>BUCKEYE MUNI</Airport_Name>
    <Latitude>33.4204166667</Latitude>
    <Longitude>-112.6861808333</Longitude>
    <Frequency>119.625</Frequency>
    <Telephone>623-386-7627</Telephone>
  </RESULTS>
  <RESULTS>
    <ICAO>BYG</ICAO>
    <Airport_Name>JOHNSON COUNTY</Airport_Name>
    <Latitude>44.3810852778</Latitude>
    <Longitude>-106.7217897222</Longitude>
    <Frequency>135.425</Frequency>
    <Telephone>307-684-2558</Telephone>
  </RESULTS>
  <RESULTS>
    <ICAO>BYI</ICAO>
    <Airport_Name>BURLEY MUNI</Airport_Name>
    <Latitude>42.5426036111</Latitude>
    <Longitude>-113.7715441667</Longitude>
    <Frequency>135.575</Frequency>
    <Telephone>208-677-3604</Telephone>
  </RESULTS>
  <RESULTS>
    <ICAO>BYY</ICAO>
    <Airport_Name>BAY CITY MUNI</Airport_Name>
    <Latitude>28.9717416667</Latitude>
    <Longitude>-95.8583508333</Longitude>
    <Frequency>118.075</Frequency>
    <Telephone>979-323-1801</Telephone>
  </RESULTS>
  <RESULTS>
    <ICAO>C04</ICAO>
    <Airport_Name>OCEANA COUNTY</Airport_Name>
    <Latitude>43.6427</Latitude>
    <Longitude>-86.3282</Longitude>
    <Frequency>122.7</Frequency>
    <Telephone>231-861-7415</Telephone>
  </RESULTS>
  <RESULTS>
    <ICAO>C09</ICAO>
    <Airport_Name>MORRIS MUNI - JAMES R. WASHBURN FIELD</Airport_Name>
    <Latitude>41.4255555556</Latitude>
    <Longitude>-88.4186111111</Longitude>
    <Frequency>118.175</Frequency>
    <Telephone>815-941-1815</Telephone>
  </RESULTS>
  <RESULTS>
    <ICAO>C29</ICAO>
    <Airport_Name>MIDDLETON MUNI - MOREY FIELD</Airport_Name>
    <Latitude>43.115</Latitude>
    <Longitude>-89.5311111111</Longitude>
    <Frequency>118.675</Frequency>
    <Telephone>608-833-1686</Telephone>
  </RESULTS>
  <RESULTS>
    <ICAO>C62</ICAO>
    <Airport_Name>KENDALLVILLE MUNI</Airport_Name>
    <Latitude>41.4727163889</Latitude>
    <Longitude>-85.2608083333</Longitude>
    <Frequency>119.925</Frequency>
    <Telephone>260-347-2967</Telephone>
  </RESULTS>
  <RESULTS>
    <ICAO>C73</ICAO>
    <Airport_Name>DIXON MUNI-CHARLES R. WALGREEN FIELD</Airport_Name>
    <Latitude>41.8336988889</Latitude>
    <Longitude>-89.4462133333</Longitude>
    <Frequency>118.575</Frequency>
    <Telephone>815-288-2039</Telephone>
  </RESULTS>
  <RESULTS>
    <ICAO>C75</ICAO>
    <Airport_Name>MARSHALL COUNTY</Airport_Name>
    <Latitude>41.0192858333</Latitude>
    <Longitude>-89.3864222222</Longitude>
    <Frequency>119.425</Frequency>
    <Telephone>309-246-3089</Telephone>
  </RESULTS>
  <RESULTS>
    <ICAO>C80</ICAO>
    <Airport_Name>NEW COALINGA MUNI</Airport_Name>
    <Latitude>36.1631388889</Latitude>
    <Longitude>-120.2938138889</Longitude>
    <Frequency>119.275</Frequency>
    <Telephone>559-935-5960</Telephone>
  </RESULTS>
  <RESULTS>
    <ICAO>C83</ICAO>
    <Airport_Name>BYRON</Airport_Name>
    <Latitude>37.8284524722</Latitude>
    <Longitude>-121.6258219167</Longitude>
    <Frequency>123.775</Frequency>
    <Telephone>925-634-0906</Telephone>
  </RESULTS>
  <RESULTS>
    <ICAO>CAD</ICAO>
    <Airport_Name>WEXFORD COUNTY</Airport_Name>
    <Latitude>44.2752777778</Latitude>
    <Longitude>-85.4188888889</Longitude>
    <Frequency>128.325</Frequency>
    <Telephone>231-779-9536</Telephone>
  </RESULTS>
  <RESULTS>
    <ICAO>CAG</ICAO>
    <Airport_Name>CRAIG-MOFFAT</Airport_Name>
    <Latitude>40.4952777778</Latitude>
    <Longitude>-107.5216666667</Longitude>
    <Frequency>135.425</Frequency>
    <Telephone>970-824-2373</Telephone>
  </RESULTS>
  <RESULTS>
    <ICAO>CAO</ICAO>
    <Airport_Name>CLAYTON MUNI ARPK</Airport_Name>
    <Latitude>36.4458333333</Latitude>
    <Longitude>-103.1547222222</Longitude>
    <Frequency>120.625</Frequency>
    <Telephone>575-374-2565</Telephone>
  </RESULTS>
  <RESULTS>
    <ICAO>CAR</ICAO>
    <Airport_Name>CARIBOU MUNI</Airport_Name>
    <Latitude>46.8716666667</Latitude>
    <Longitude>-68.0180555556</Longitude>
    <Frequency>135.125</Frequency>
    <Telephone>207-496-3153</Telephone>
  </RESULTS>
  <RESULTS>
    <ICAO>CAV</ICAO>
    <Airport_Name>CLARION MUNI</Airport_Name>
    <Latitude>42.7419444444</Latitude>
    <Longitude>-93.7588888889</Longitude>
    <Frequency>126.575</Frequency>
    <Telephone>515-532-3515</Telephone>
  </RESULTS>
  <RESULTS>
    <ICAO>CBE</ICAO>
    <Airport_Name>GREATER CUMBERLAND RGNL</Airport_Name>
    <Latitude>39.6155555556</Latitude>
    <Longitude>-78.7608333333</Longitude>
    <Frequency>128.625</Frequency>
    <Telephone>304-738-0451</Telephone>
  </RESULTS>
  <RESULTS>
    <ICAO>CBF</ICAO>
    <Airport_Name>COUNCIL BLUFFS MUNI</Airport_Name>
    <Latitude>41.2594444444</Latitude>
    <Longitude>-95.76</Longitude>
    <Frequency>126.575</Frequency>
    <Telephone>712-323-1542</Telephone>
  </RESULTS>
  <RESULTS>
    <ICAO>CBG</ICAO>
    <Airport_Name>CAMBRIDGE MUNI</Airport_Name>
    <Latitude>45.5586111111</Latitude>
    <Longitude>-93.2647222222</Longitude>
    <Frequency>121.125</Frequency>
    <Telephone>763-689-9562</Telephone>
  </RESULTS>
  <RESULTS>
    <ICAO>CBK</ICAO>
    <Airport_Name>SHALZ FIELD</Airport_Name>
    <Latitude>39.4275</Latitude>
    <Longitude>-101.0466666667</Longitude>
    <Frequency>118.175</Frequency>
    <Telephone>785-460-4499</Telephone>
  </RESULTS>
  <RESULTS>
    <ICAO>CCA</ICAO>
    <Airport_Name>CLINTON MUNI</Airport_Name>
    <Latitude>35.5945</Latitude>
    <Longitude>-92.4455</Longitude>
    <Frequency>118.725</Frequency>
    <Telephone>501-745-5000</Telephone>
  </RESULTS>
  <RESULTS>
    <ICAO>CCO</ICAO>
    <Airport_Name>NEWNAN COWETA COUNTY</Airport_Name>
    <Latitude>33.3122222222</Latitude>
    <Longitude>-84.7702777778</Longitude>
    <Frequency>118.975</Frequency>
    <Telephone>770-254-1617</Telephone>
  </RESULTS>
  <RESULTS>
    <ICAO>CCY</ICAO>
    <Airport_Name>NORTHEAST IOWA RGNL</Airport_Name>
    <Latitude>43.0725</Latitude>
    <Longitude>-92.6108333333</Longitude>
    <Frequency>125.525</Frequency>
    <Telephone>641-228-7069</Telephone>
  </RESULTS>
  <RESULTS>
    <ICAO>CDA</ICAO>
    <Airport_Name>CALEDONIA COUNTY</Airport_Name>
    <Latitude>44.5691141667</Latitude>
    <Longitude>-72.0179788889</Longitude>
    <Frequency>119.275</Frequency>
    <Telephone>802-626-4532</Telephone>
  </RESULTS>
  <RESULTS>
    <ICAO>CDB</ICAO>
    <Airport_Name>COLD BAY</Airport_Name>
    <Latitude>55.2051500278</Latitude>
    <Longitude>-162.7244662222</Longitude>
    <Frequency>135.75</Frequency>
    <Telephone>907-532-2639</Telephone>
  </RESULTS>
  <RESULTS>
    <ICAO>CDC</ICAO>
    <Airport_Name>CEDAR CITY RGNL</Airport_Name>
    <Latitude>37.7009663889</Latitude>
    <Longitude>-113.0988458333</Longitude>
    <Frequency>119.025</Frequency>
    <Telephone>435-867-0278</Telephone>
  </RESULTS>
  <RESULTS>
    <ICAO>CDD</ICAO>
    <Airport_Name>SCOTTS</Airport_Name>
    <Latitude>48.2666666667</Latitude>
    <Longitude>-92.4836111111</Longitude>
    <Frequency>385</Frequency>
    <Telephone>218-993-2467</Telephone>
  </RESULTS>
  <RESULTS>
    <ICAO>CDH</ICAO>
    <Airport_Name>HARRELL FIELD</Airport_Name>
    <Latitude>33.6209166667</Latitude>
    <Longitude>-92.8004444444</Longitude>
    <Frequency>125.2</Frequency>
    <Telephone>870-574-1011</Telephone>
  </RESULTS>
  <RESULTS>
    <ICAO>CDI</ICAO>
    <Airport_Name>CAMBRIDGE MUNI</Airport_Name>
    <Latitude>39.975</Latitude>
    <Longitude>-81.5775</Longitude>
    <Frequency>118.525</Frequency>
    <Telephone>740-435-0086</Telephone>
  </RESULTS>
  <RESULTS>
    <ICAO>CDN</ICAO>
    <Airport_Name>WOODWARD FIELD</Airport_Name>
    <Latitude>34.2835833333</Latitude>
    <Longitude>-80.5648611111</Longitude>
    <Frequency>119.975</Frequency>
    <Telephone>803-424-1979</Telephone>
  </RESULTS>
  <RESULTS>
    <ICAO>CDR</ICAO>
    <Airport_Name>CHADRON MUNI</Airport_Name>
    <Latitude>42.8375555556</Latitude>
    <Longitude>-103.0953888889</Longitude>
    <Frequency>118.05</Frequency>
    <Telephone>308-432-5574</Telephone>
  </RESULTS>
  <RESULTS>
    <ICAO>CDS</ICAO>
    <Airport_Name>CHILDRESS MUNI</Airport_Name>
    <Latitude>34.4336111111</Latitude>
    <Longitude>-100.2880555556</Longitude>
    <Frequency>135.125</Frequency>
    <Telephone>940-937-6337</Telephone>
  </RESULTS>
  <RESULTS>
    <ICAO>CDV</ICAO>
    <Airport_Name>MERLE K (MUDHOLE) SMITH</Airport_Name>
    <Latitude>60.4917777778</Latitude>
    <Longitude>-145.4775555556</Longitude>
    <Frequency>134.8</Frequency>
    <Telephone>907-424-5900</Telephone>
  </RESULTS>
  <RESULTS>
    <ICAO>CEC</ICAO>
    <Airport_Name>JACK MC NAMARA FIELD</Airport_Name>
    <Latitude>41.7801572222</Latitude>
    <Longitude>-124.2365333333</Longitude>
    <Frequency>119.925</Frequency>
    <Telephone>707-465-5458</Telephone>
  </RESULTS>
  <RESULTS>
    <ICAO>CEU</ICAO>
    <Airport_Name>OCONEE COUNTY RGNL</Airport_Name>
    <Latitude>34.6722235833</Latitude>
    <Longitude>-82.8814429722</Longitude>
    <Frequency>119.275</Frequency>
    <Telephone>864-882-0144</Telephone>
  </RESULTS>
  <RESULTS>
    <ICAO>CEV</ICAO>
    <Airport_Name>METTEL FIELD</Airport_Name>
    <Latitude>39.6981944444</Latitude>
    <Longitude>-85.1311388889</Longitude>
    <Frequency>118.325</Frequency>
    <Telephone>765-827-6649</Telephone>
  </RESULTS>
  <RESULTS>
    <ICAO>CEW</ICAO>
    <Airport_Name>BOB SIKES</Airport_Name>
    <Latitude>30.7788888889</Latitude>
    <Longitude>-86.5222222222</Longitude>
    <Frequency>119.275</Frequency>
    <Telephone>850-682-1237</Telephone>
  </RESULTS>
  <RESULTS>
    <ICAO>CEY</ICAO>
    <Airport_Name>KYLE-OAKLEY FIELD</Airport_Name>
    <Latitude>36.6655555556</Latitude>
    <Longitude>-88.3711111111</Longitude>
    <Frequency>119.975</Frequency>
    <Telephone>270-489-2424</Telephone>
  </RESULTS>
  <RESULTS>
    <ICAO>CEZ</ICAO>
    <Airport_Name>CORTEZ MUNI</Airport_Name>
    <Latitude>37.3030555556</Latitude>
    <Longitude>-108.6280555556</Longitude>
    <Frequency>135.625</Frequency>
    <Telephone>970-564-0193</Telephone>
  </RESULTS>
  <RESULTS>
    <ICAO>CFE</ICAO>
    <Airport_Name>BUFFALO MUNI</Airport_Name>
    <Latitude>45.1588333333</Latitude>
    <Longitude>-93.8433055556</Longitude>
    <Frequency>120.45</Frequency>
    <Telephone>763-684-0762</Telephone>
  </RESULTS>
  <RESULTS>
    <ICAO>CFJ</ICAO>
    <Airport_Name>CRAWFORDSVILLE MUNI</Airport_Name>
    <Latitude>39.9767111111</Latitude>
    <Longitude>-86.9148527778</Longitude>
    <Frequency>125.650</Frequency>
    <Telephone>765-362-2967</Telephone>
  </RESULTS>
  <RESULTS>
    <ICAO>CFS</ICAO>
    <Airport_Name>TUSCOLA AREA</Airport_Name>
    <Latitude>43.4588619444</Latitude>
    <Longitude>-83.4454457222</Longitude>
    <Frequency>119.275</Frequency>
    <Telephone>989-672-4182</Telephone>
  </RESULTS>
  <RESULTS>
    <ICAO>CFT</ICAO>
    <Airport_Name>GREENLEE COUNTY</Airport_Name>
    <Latitude>32.9570386389</Latitude>
    <Longitude>-109.2111623056</Longitude>
    <Frequency>119.05</Frequency>
    <Telephone>928-687-1116</Telephone>
  </RESULTS>
  <RESULTS>
    <ICAO>CFV</ICAO>
    <Airport_Name>COFFEYVILLE MUNI</Airport_Name>
    <Latitude>37.0941666667</Latitude>
    <Longitude>-95.5719444444</Longitude>
    <Frequency>121.275</Frequency>
    <Telephone>620-251-1959</Telephone>
  </RESULTS>
  <RESULTS>
    <ICAO>CGC</ICAO>
    <Airport_Name>CRYSTAL RIVER</Airport_Name>
    <Latitude>28.8676111111</Latitude>
    <Longitude>-82.5741111111</Longitude>
    <Frequency>118.325</Frequency>
    <Telephone>352-563-6600</Telephone>
  </RESULTS>
  <RESULTS>
    <ICAO>CGE</ICAO>
    <Airport_Name>CAMBRIDGE-DORCHESTER</Airport_Name>
    <Latitude>38.5393333333</Latitude>
    <Longitude>-76.0303888889</Longitude>
    <Frequency>120.675</Frequency>
    <Telephone>410-228-7559</Telephone>
  </RESULTS>
  <RESULTS>
    <ICAO>CGI</ICAO>
    <Airport_Name>CAPE GIRARDEAU RGNL</Airport_Name>
    <Latitude>37.2252777778</Latitude>
    <Longitude>-89.5708333333</Longitude>
    <Frequency>120.55</Frequency>
    <Telephone>573-335-3811</Telephone>
  </RESULTS>
  <RESULTS>
    <ICAO>CGS</ICAO>
    <Airport_Name>COLLEGE PARK</Airport_Name>
    <Latitude>38.9805833333</Latitude>
    <Longitude>-76.9223055556</Longitude>
    <Frequency>121.225</Frequency>
    <Telephone>301-864-5497</Telephone>
  </RESULTS>
  <RESULTS>
    <ICAO>CGZ</ICAO>
    <Airport_Name>CASA GRANDE MUNI</Airport_Name>
    <Latitude>32.955</Latitude>
    <Longitude>-111.7669444444</Longitude>
    <Frequency>132.175</Frequency>
    <Telephone>520-836-3392</Telephone>
  </RESULTS>
  <RESULTS>
    <ICAO>CHK</ICAO>
    <Airport_Name>CHICKASHA MUNI</Airport_Name>
    <Latitude>35.0973611111</Latitude>
    <Longitude>-97.9676944444</Longitude>
    <Frequency>118.175</Frequency>
    <Telephone>405-574-1016</Telephone>
  </RESULTS>
  <RESULTS>
    <ICAO>CHO</ICAO>
    <Airport_Name>CHARLOTTESVILLE-ALBEMARLE</Airport_Name>
    <Latitude>38.1386388889</Latitude>
    <Longitude>-78.4528611111</Longitude>
    <Frequency>118.425</Frequency>
    <Telephone>434-973-5024</Telephone>
  </RESULTS>
  <RESULTS>
    <ICAO>CHT</ICAO>
    <Airport_Name>CHILLICOTHE MUNI</Airport_Name>
    <Latitude>39.7822222222</Latitude>
    <Longitude>-93.4955555556</Longitude>
    <Frequency>118.175</Frequency>
    <Telephone>660-646-0713</Telephone>
  </RESULTS>
  <RESULTS>
    <ICAO>CIC</ICAO>
    <Airport_Name>CHICO MUNI</Airport_Name>
    <Latitude>39.7955</Latitude>
    <Longitude>-121.8573333333</Longitude>
    <Frequency>119.675</Frequency>
    <Telephone>530-879-3850</Telephone>
  </RESULTS>
  <RESULTS>
    <ICAO>CIN</ICAO>
    <Airport_Name>ARTHUR N NEU</Airport_Name>
    <Latitude>42.0461111111</Latitude>
    <Longitude>-94.7888888889</Longitude>
    <Frequency>118.025</Frequency>
    <Telephone>712-792-2306</Telephone>
  </RESULTS>
  <RESULTS>
    <ICAO>CIR</ICAO>
    <Airport_Name>CAIRO RGNL</Airport_Name>
    <Latitude>37.0641388889</Latitude>
    <Longitude>-89.2195277778</Longitude>
    <Frequency>118.025</Frequency>
    <Telephone>618-734-9173</Telephone>
  </RESULTS>
  <RESULTS>
    <ICAO>CIU</ICAO>
    <Airport_Name>CHIPPEWA COUNTY INTL</Airport_Name>
    <Latitude>46.2477777778</Latitude>
    <Longitude>-84.4711111111</Longitude>
    <Frequency>127.575</Frequency>
    <Telephone>906-495-7134</Telephone>
  </RESULTS>
  <RESULTS>
    <ICAO>CJR</ICAO>
    <Airport_Name>CULPEPER RGNL</Airport_Name>
    <Latitude>38.5266666667</Latitude>
    <Longitude>-77.8588888889</Longitude>
    <Frequency>119.325</Frequency>
    <Telephone>540-727-0523</Telephone>
  </RESULTS>
  <RESULTS>
    <ICAO>CKC</ICAO>
    <Airport_Name>GRAND MARAIS/COOK COUNTY</Airport_Name>
    <Latitude>47.8383333333</Latitude>
    <Longitude>-90.3830555556</Longitude>
    <Frequency>119.925</Frequency>
    <Telephone>218-387-1971</Telephone>
  </RESULTS>
  <RESULTS>
    <ICAO>CKF</ICAO>
    <Airport_Name>CRISP COUNTY-CORDELE</Airport_Name>
    <Latitude>31.9888888889</Latitude>
    <Longitude>-83.7738888889</Longitude>
    <Frequency>119.325</Frequency>
    <Telephone>229-276-2669</Telephone>
  </RESULTS>
  <RESULTS>
    <ICAO>CKI</ICAO>
    <Airport_Name>WILLIAMSBURG RGNL</Airport_Name>
    <Latitude>33.7186111111</Latitude>
    <Longitude>-79.8566666667</Longitude>
    <Frequency>124.775</Frequency>
    <Telephone>843-382-3000</Telephone>
  </RESULTS>
  <RESULTS>
    <ICAO>CKM</ICAO>
    <Airport_Name>FLETCHER FIELD</Airport_Name>
    <Latitude>34.2997222222</Latitude>
    <Longitude>-90.5123055556</Longitude>
    <Frequency>120.675</Frequency>
    <Telephone>662-624-9777</Telephone>
  </RESULTS>
  <RESULTS>
    <ICAO>CKN</ICAO>
    <Airport_Name>CROOKSTON MUNI KIRKWOOD FLD</Airport_Name>
    <Latitude>47.8416666667</Latitude>
    <Longitude>-96.6216666667</Longitude>
    <Frequency>400</Frequency>
    <Telephone>218-281-3018</Telephone>
  </RESULTS>
  <RESULTS>
    <ICAO>CKP</ICAO>
    <Airport_Name>CHEROKEE COUNTY RGNL</Airport_Name>
    <Latitude>42.7312222222</Latitude>
    <Longitude>-95.5560833333</Longitude>
    <Frequency>119.225</Frequency>
    <Telephone>712-225-1088</Telephone>
  </RESULTS>
  <RESULTS>
    <ICAO>CKV</ICAO>
    <Airport_Name>OUTLAW FIELD</Airport_Name>
